~Version                                                                        
 VERS.                2.0 :   CWLS Log ASCII Standard -VERSION 2.0              
 WRAP.                 NO :   One line per depth step                           
~Well Information Block                                                         
#MNEM.UNIT       Data                        Description of Mnemonic            
#----.----      -------------------------- : ------------------------------     
STRT.M           9775.000000               : Start Depth                        
STOP.M           16350.000000              : End Depth                          
STEP.M           0.500000                  : Depth Increment                    
NULL.             -999.250000              : NULL Value                         
COMP.                                      : Company                            
WELL.         6707101_NORWAY               : Well Name                          
UWI .                                      : Unique Well ID                     
~Parameter Information Block                                                    
#----.----      -------------------------- : -----------------------------      
DREF.                  KB                 : Depth Reference                     
EREF.M                                     : Elevation of Depth Reference       
~Tops                                                                           
#TOPS NAME   .        DEPTH:                                                    
~Curve Information Block                                                        
#MNEM.UNIT        API CODE                   Curve Description                  
#----.----      LG--CV-CL--M               : -----------------                  
 depth.F                         : depth index                                  
 CALI.IN                         :   14  CALI                                   
 DBML.F                          :   water depth = 4180 ft.                     
 DT.US/F                         :   13  DT                                     
 DTS.USEC/FT                     :   Shear sonic from D. Neff's IPT project     
 GR.GAPI                         :   12  GR                                     
 RDEEP.OHMM                      :   5   RDEEP                                  
 RHOB.G/C3                       :   10  RHOB                                   
 RO.OHMM                         :   Rt for water saturated formation           
 SALW.PPM                        :   Curve replaced from 7250.89 to 16349.56    
 SW.V/V                          :   IFC(SW_NOCLIP>.85,1,SW)                    
 VSH.V/V                         :   Limited volume of shale                    
 phit.V/V                        : total porosity                               
 xsh.V/V                         : total shale fraction                         
~Asc Depth                                                                      
# ...
   1.3267000e+04   8.7579358e+00   9.6498789e+03   8.3045771e+01   1.5393273e+02   7.4047539e+01   6.5922012e+00   2.5064786e+00   4.2413588e+00   1.8206702e+04   1.0000000e+00   5.1576134e-01   1.0117161e-01   4.1115809e-01
   1.3267500e+04   8.7533578e+00   9.6498789e+03   8.3027325e+01   1.5411002e+02   7.8929276e+01   7.4629692e+00   2.5163663e+00   4.2672210e+00   1.8206549e+04   1.0000000e+00   5.6895680e-01   9.5521296e-02   4.2552326e-01
   1.3268000e+04   8.7613486e+00   9.6498789e+03   8.3125639e+01   1.5335998e+02   8.2741994e+01   8.4309466e+00   2.5252002e+00   4.3886071e+00   1.8206395e+04   1.0000000e+00   5.9054402e-01   9.0541895e-02   4.4101039e-01
   1.3268500e+04   8.7743486e+00   9.6498789e+03   8.3225407e+01   1.5086350e+02   8.4215594e+01   8.4166770e+00   2.5310524e+00   4.5400080e+00   1.8206241e+04   1.0000000e+00   5.8378168e-01   8.7264425e-02   4.5209350e-01
   1.3269000e+04   8.7404680e+00   9.6498789e+03   8.3226767e+01   1.4786278e+02   8.3596381e+01   7.9238172e+00   2.5329434e+00   4.6374769e+00   1.8206086e+04   1.0000000e+00   5.5745694e-01   8.6186950e-02   4.5496515e-01
   1.3269500e+04   8.6412938e+00   9.6498789e+03   8.3086803e+01   1.4481296e+02   8.1512060e+01   6.8663099e+00   2.5298829e+00   4.6091038e+00   1.8205933e+04   1.0000000e+00   5.1456064e-01   8.7848405e-02   4.4714666e-01
   1.3270000e+04   8.5093764e+00   9.6498789e+03   8.2832604e+01   1.4122010e+02   7.8172579e+01   5.7675046e+00   2.5199301e+00   4.4755067e+00   1.8205780e+04   1.0000000e+00   4.5471480e-01   9.3373799e-02   4.2643913e-01
   1.3270500e+04   8.4477982e+00   9.6498789e+03   8.2538125e+01   1.3651487e+02   7.3576968e+01   5.1321789e+00   2.5040445e+00   4.2788132e+00   1.8205626e+04   1.0000000e+00   3.8203592e-01   1.0226177e-01   3.9604640e-01
   1.3271000e+04   8.4442110e+00   9.6498789e+03   8.2274587e+01   1.3308336e+02   6.8091873e+01   4.5583513e+00   2.4832126e+00   4.0670591e+00   1.8205471e+04   1.0000000e+00   3.0743408e-01   1.1399212e-01   3.5908627e-01
   1.3271500e+04   8.4357248e+00   9.6498789e+03   8.2069459e+01   1.3271309e+02   6.2561634e+01   4.1089965e+00   2.4613801e+00   3.8654582e+00   1.8205317e+04   1.0000000e+00   2.4340286e-01   1.2632947e-01   3.2203223e-01
   1.3272000e+04   8.4216514e+00   9.6498789e+03   8.1916862e+01   1.3336051e+02   5.7907927e+01   3.7868343e+00   2.4414924e+00   3.7037718e+00   1.8205164e+04   1.0000000e+00   1.9883126e-01   1.3758935e-01   2.8911307e-01
   1.3272500e+04   8.4195688e+00   9.6498789e+03   8.1799817e+01   1.3491038e+02   5.4759342e+01   3.6345371e+00   2.4274448e+00   3.5770277e+00   1.8205010e+04   1.0000000e+00   1.7818626e-01   1.4553910e-01   2.6572571e-01
   1.3273000e+04   8.4261376e+00   9.6498789e+03   8.1716923e+01   1.3627270e+02   5.3450521e+01   3.5866561e+00   2.4193129e+00   3.4708011e+00   1.8204856e+04   1.0000000e+00   1.8530272e-01   1.5013367e-01   2.5190486e-01
   1.3273500e+04   8.4322110e+00   9.6498789e+03   8.1697677e+01   1.3696768e+02   5.4256512e+01   3.8343012e+00   2.4180463e+00   3.3714938e+00   1.8204702e+04   1.0000000e+00   2.2184762e-01   1.5084620e-01   2.4963998e-01
   1.3274000e+04   8.4359266e+00   9.6498789e+03   8.1794757e+01   1.3781128e+02   5.7180819e+01   4.7536158e+00   2.4227320e+00   3.2686332e+00   1.8204549e+04   1.0000000e+00   2.7761732e-01   1.4822610e-01   2.5867389e-01
   1.3274500e+04   8.4459908e+00   9.6498789e+03   8.2061596e+01   1.3914622e+02   6.1300732e+01   6.0647992e+00   2.4295747e+00   3.1744580e+00   1.8204395e+04   1.0000000e+00   3.2762102e-01   1.4446981e-01   2.7456199e-01
   1.3275000e+04   8.4561376e+00   9.6498789e+03   8.2518545e+01   1.4031825e+02   6.4714177e+01   6.2763006e+00   2.4337276e+00   3.1110469e+00   1.8204241e+04   1.0000000e+00   3.4603302e-01   1.4235637e-01   2.9063027e-01
   1.3275500e+04   8.4416606e+00   9.6498789e+03   8.3122838e+01   1.4104244e+02   6.5684416e+01   5.6062997e+00   2.4321505e+00   3.0579148e+00   1.8204086e+04   1.0000000e+00   3.2592208e-01   1.4359671e-01   3.0144437e-01
   1.3276000e+04   8.4307156e+00   9.6498789e+03   8.3771864e+01   1.4154645e+02   6.3952529e+01   5.0161493e+00   2.4228259e+00   2.9936313e+00   1.8203932e+04   1.0000000e+00   2.8358816e-01   1.4927915e-01   3.0158273e-01
   1.3276500e+04   8.4312844e+00   9.6498789e+03   8.4333653e+01   1.4173301e+02   6.0829441e+01   4.8828010e+00   2.4092566e+00   2.8974516e+00   1.8203779e+04   1.0000000e+00   2.4306704e-01   1.5732728e-01   2.9324489e-01
   1.3277000e+04   8.4300734e+00   9.6498789e+03   8.4695117e+01   1.4182920e+02   5.7979161e+01   4.8971535e+00   2.3944562e+00   2.7772323e+00   1.8203626e+04   1.0000000e+00   2.1718444e-01   1.6595853e-01   2.7847398e-01
   1.3277500e+04   8.4283578e+00   9.6498789e+03   8.4795960e+01   1.4181722e+02   5.6169321e+01   4.9303242e+00   2.3813552e+00   2.6918130e+00   1.8203471e+04   1.0000000e+00   2.0316424e-01   1.7347292e-01   2.6054200e-01
   1.3278000e+04   8.4260734e+00   9.6498789e+03   8.4646104e+01   1.4153335e+02   5.5132392e+01   5.0079059e+00   2.3737810e+00   2.6640624e+00   1.8203317e+04   1.0000000e+00   1.9230002e-01   1.7770126e-01   2.4569890e-01
   1.3278500e+04   8.4275688e+00   9.6498789e+03   8.4299619e+01   1.4078489e+02   5.4268571e+01   5.1140499e+00   2.3703562e+00   2.6884293e+00   1.8203163e+04   1.0000000e+00   1.7915232e-01   1.7945983e-01   2.3307239e-01
   1.3279000e+04   8.4309266e+00   9.6498789e+03   8.3831393e+01   1.4004812e+02   5.3269258e+01   5.2299619e+00   2.3700000e+00   2.7472054e+00   1.8203010e+04   1.0000000e+00   1.6558718e-01   1.7940602e-01   2.2262769e-01
   1.3279500e+04   8.4294312e+00   9.6498789e+03   8.3307264e+01   1.3942056e+02   5.2337528e+01   5.2744432e+00   2.3717335e+00   2.7977018e+00   1.8202856e+04   1.0000000e+00   1.5839542e-01   1.7813322e-01   2.1425846e-01
   1.3280000e+04   8.4241468e+00   9.6498789e+03   8.2769338e+01   1.3871589e+02   5.1944766e+01   5.2705775e+00   2.3737189e+00   2.8056211e+00   1.8202702e+04   1.0000000e+00   1.6188072e-01   1.7671144e-01   2.0605966e-01
   1.3280500e+04   8.4232844e+00   9.6498789e+03   8.2247777e+01   1.3787408e+02   5.2301690e+01   5.3635456e+00   2.3748523e+00   2.7859092e+00   1.8202547e+04   1.0000000e+00   1.7249906e-01   1.7578652e-01   1.9701078e-01
   1.3281000e+04   8.4252844e+00   9.6498789e+03   8.1775587e+01   1.3720030e+02   5.3069042e+01   5.6056699e+00   2.3758449e+00   2.7612661e+00   1.8202394e+04   1.0000000e+00   1.8197338e-01   1.7497044e-01   1.8885626e-01
   1.3281500e+04   8.4240734e+00   9.6498789e+03   8.1383659e+01   1.3682650e+02   5.3674795e+01   5.7944634e+00   2.3760000e+00   2.7426101e+00   1.8202241e+04   1.0000000e+00   1.8505688e-01   1.7467655e-01   1.8116649e-01
   1.3282000e+04   8.4262110e+00   9.6498789e+03   8.1087114e+01   1.3646598e+02   5.3834484e+01   5.7895327e+00   2.3751695e+00   2.7257331e+00   1.8202086e+04   1.0000000e+00   1.8308074e-01   1.7499645e-01   1.7400121e-01
   1.3282500e+04   8.4267156e+00   9.6498789e+03   8.0879074e+01   1.3605397e+02   5.3693013e+01   5.7231774e+00   2.3733535e+00   2.7052716e+00   1.8201932e+04   1.0000000e+00   1.8074404e-01   1.7592593e-01   1.6719501e-01
   1.3283000e+04   8.4227890e+00   9.6498789e+03   8.0733076e+01   1.3567155e+02   5.3553707e+01   5.6928568e+00   2.3713681e+00   2.6796753e+00   1.8201778e+04   1.0000000e+00   1.8022844e-01   1.7698469e-01   1.6139962e-01
   1.3283500e+04   8.4216422e+00   9.6498789e+03   8.0620390e+01   1.3536774e+02   5.3533197e+01   5.6859884e+00   2.3693824e+00   2.6509835e+00   1.8201625e+04   1.0000000e+00   1.8094220e-01   1.7806108e-01   1.5627922e-01
   1.3284000e+04   8.4213578e+00   9.6498789e+03   8.0522278e+01   1.3521043e+02   5.3586015e+01   5.6917919e+00   2.3673971e+00   2.6302248e+00   1.8201471e+04   1.0000000e+00   1.8194220e-01   1.7914508e-01   1.5145821e-01
   1.3284500e+04   8.4216422e+00   9.6498789e+03   8.0428517e+01   1.3525764e+02   5.3659583e+01   5.7250124e+00   2.3662057e+00   2.6221881e+00   1.8201317e+04   1.0000000e+00   1.8307064e-01   1.7977803e-01   1.4789458e-01
