~Version                                                                        
 VERS.                2.0 :   CWLS Log ASCII Standard -VERSION 2.0              
 WRAP.                 NO :   One line per depth step                           
~Well Information Block                                                         
#MNEM.UNIT       Data                        Description of Mnemonic            
#----.----      -------------------------- : ------------------------------     
STRT.M           9775.000000               : Start Depth                        
STOP.M           16350.000000              : End Depth                          
STEP.M           0.500000                  : Depth Increment                    
NULL.             -999.250000              : NULL Value                         
COMP.                                      : Company                            
WELL.         6707101_NORWAY               : Well Name                          
UWI .                                      : Unique Well ID                     
~Parameter Information Block                                                    
#----.----      -------------------------- : -----------------------------      
DREF.                  KB                 : Depth Reference                     
EREF.M                                     : Elevation of Depth Reference       
~Tops                                                                           
#TOPS NAME   .        DEPTH:                                                    
~Curve Information Block                                                        
#MNEM.UNIT        API CODE                   Curve Description                  
#----.----      LG--CV-CL--M               : -----------------                  
 depth.F                         : depth index                                  
 CALI.IN                         :   14  CALI                                   
 DBML.F                          :   water depth = 4180 ft.                     
 DT.US/F                         :   13  DT                                     
 DTS.USEC/FT                     :   Shear sonic from D. Neff's IPT project     
 GR.GAPI                         :   12  GR                                     
 RDEEP.OHMM                      :   5   RDEEP                                  
 RHOB.G/C3                       :   10  RHOB                                   
 RO.OHMM                         :   Rt for water saturated formation           
 SALW.PPM                        :   Curve replaced from 7250.89 to 16349.56    
 SW.V/V                          :   IFC(SW_NOCLIP>.85,1,SW)                    
 VSH.V/V                         :   Limited volume of shale                    
 phit.V/V                        : total porosity                               
 xsh.V/V                         : total shale fraction                         
~Asc Depth                                                                      
# ...
   1.1953000e+04   1.1940456e+01   9.6498789e+03   8.9562657e+01   1.5989829e+02   5.1978435e+01   2.1382250e+00   2.2904926e+00   1.7673344e+00   1.8611073e+04   1.0000000e+00   2.6324300e-01   2.2563671e-01   1.0797508e-01
   1.1953500e+04   1.1914234e+01   9.6498789e+03   8.9850545e+01   1.6097784e+02   5.3862187e+01   2.3261214e+00   2.2987762e+00   1.7581590e+00   1.8610919e+04   1.0000000e+00   3.0949380e-01   2.2104827e-01   1.2668963e-01
   1.1954000e+04   1.1915630e+01   9.6498789e+03   9.0190230e+01   1.6213629e+02   5.6670033e+01   2.3893132e+00   2.3084180e+00   1.7517036e+00   1.8610764e+04   1.0000000e+00   3.6776700e-01   2.1571377e-01   1.4872601e-01
   1.1954500e+04   1.1954384e+01   9.6498789e+03   9.0564194e+01   1.6362608e+02   5.9752161e+01   2.1483102e+00   2.3209852e+00   1.7519334e+00   1.8610611e+04   1.0000000e+00   4.3248680e-01   2.0873473e-01   1.7638127e-01
   1.1955000e+04   1.1985840e+01   9.6498789e+03   9.0945035e+01   1.6549153e+02   6.3217100e+01   1.9914026e+00   2.3356270e+00   1.7702982e+00   1.8610458e+04   1.0000000e+00   4.7682920e-01   2.0058526e-01   2.0785052e-01
   1.1955500e+04   1.1972456e+01   9.6498789e+03   9.1298727e+01   1.6759498e+02   6.7591634e+01   2.3854684e+00   2.3480598e+00   1.8232066e+00   1.8610303e+04   1.0000000e+00   4.6988200e-01   1.9368680e-01   2.3545067e-01
   1.1956000e+04   1.1932752e+01   9.6498789e+03   9.1586462e+01   1.6895290e+02   7.2455190e+01   3.0523494e+00   2.3539254e+00   1.9064924e+00   1.8610149e+04   1.0000000e+00   4.0762640e-01   1.9049534e-01   2.5105502e-01
   1.1956500e+04   1.1918926e+01   9.6498789e+03   9.1773480e+01   1.6884755e+02   7.5747256e+01   2.9048602e+00   2.3511492e+00   1.9732050e+00   1.8609995e+04   1.0000000e+00   3.2445100e-01   1.9216829e-01   2.5031810e-01
   1.1957000e+04   1.1923852e+01   9.6498789e+03   9.1837588e+01   1.6777355e+02   7.5141492e+01   2.2868004e+00   2.3406566e+00   1.9598358e+00   1.8609842e+04   1.0000000e+00   2.6755700e-01   1.9816668e-01   2.3425239e-01
   1.1957500e+04   1.1929852e+01   9.6498789e+03   9.1776033e+01   1.6601219e+02   7.0402784e+01   1.9953274e+00   2.3257312e+00   1.8608796e+00   1.8609688e+04   1.0000000e+00   2.5745080e-01   2.0662460e-01   2.0834834e-01
   1.1958000e+04   1.1924296e+01   9.6498789e+03   9.1611858e+01   1.6417062e+02   6.4193727e+01   2.1161664e+00   2.3103730e+00   1.7471986e+00   1.8609534e+04   1.0000000e+00   2.7537960e-01   2.1528218e-01   1.7983106e-01
   1.1958500e+04   1.1901382e+01   9.6498789e+03   9.1391026e+01   1.6271701e+02   6.0041979e+01   2.3031954e+00   2.2985820e+00   1.6700948e+00   1.8609379e+04   1.0000000e+00   2.8839400e-01   2.2188728e-01   1.5624069e-01
   1.1959000e+04   1.1892284e+01   9.6498789e+03   9.1172707e+01   1.6180442e+02   5.9372726e+01   2.2989544e+00   2.2898656e+00   1.6324142e+00   1.8609226e+04   1.0000000e+00   2.8049960e-01   2.2674700e-01   1.3786345e-01
   1.1959500e+04   1.1902630e+01   9.6498789e+03   9.1012790e+01   1.6163841e+02   6.0704656e+01   2.1235204e+00   2.2818656e+00   1.6109810e+00   1.8609073e+04   1.0000000e+00   2.5961300e-01   2.3122847e-01   1.2186287e-01
   1.1960000e+04   1.1921482e+01   9.6498789e+03   9.0944156e+01   1.6191813e+02   6.1591689e+01   2.0221788e+00   2.2732238e+00   1.5847400e+00   1.8608919e+04   1.0000000e+00   2.4131320e-01   2.3611924e-01   1.0661180e-01
   1.1960500e+04   1.1935420e+01   9.6498789e+03   9.0966315e+01   1.6248294e+02   6.0931454e+01   2.0311794e+00   2.2642238e+00   1.5495398e+00   1.8608764e+04   1.0000000e+00   2.3291100e-01   2.4125660e-01   9.2521387e-02
   1.1961000e+04   1.1922950e+01   9.6498789e+03   9.1044538e+01   1.6310106e+02   5.9371155e+01   2.0789408e+00   2.2558656e+00   1.5172820e+00   1.8608610e+04   1.0000000e+00   2.3245560e-01   2.4605429e-01   8.0527305e-02
   1.1961500e+04   1.1908864e+01   9.6498789e+03   9.1125478e+01   1.6359000e+02   5.8047768e+01   2.1208212e+00   2.2497910e+00   1.4978478e+00   1.8608457e+04   1.0000000e+00   2.3489760e-01   2.4955240e-01   7.2271882e-02
   1.1962000e+04   1.1909210e+01   9.6498789e+03   9.1163560e+01   1.6395375e+02   5.7463115e+01   2.0964174e+00   2.2467164e+00   1.4958174e+00   1.8608303e+04   1.0000000e+00   2.3615680e-01   2.5132206e-01   6.8064030e-02
   1.1962500e+04   1.1927050e+01   9.6498789e+03   9.1144613e+01   1.6415474e+02   5.7448655e+01   2.0400592e+00   2.2466418e+00   1.5077720e+00   1.8608149e+04   1.0000000e+00   2.3610740e-01   2.5135690e-01   6.7642695e-02
   1.1963000e+04   1.1946272e+01   9.6498789e+03   9.1089168e+01   1.6412846e+02   5.7627661e+01   2.0045968e+00   2.2489254e+00   1.5348144e+00   1.8607995e+04   1.0000000e+00   2.4344720e-01   2.5003178e-01   7.0349842e-02
   1.1963500e+04   1.1937876e+01   9.6498789e+03   9.1034267e+01   1.6377654e+02   5.7712791e+01   1.9857312e+00   2.2557762e+00   1.5578066e+00   1.8607842e+04   1.0000000e+00   2.7385780e-01   2.4610497e-01   8.0430433e-02
   1.1964000e+04   1.1912666e+01   9.6498789e+03   9.1009633e+01   1.6381066e+02   5.7773869e+01   2.0634340e+00   2.2673434e+00   1.5646420e+00   1.8607688e+04   1.0000000e+00   3.3697100e-01   2.3950568e-01   9.8705285e-02
   1.1964500e+04   1.1913272e+01   9.6498789e+03   9.1023129e+01   1.6502154e+02   5.8541092e+01   2.3763470e+00   2.2835524e+00   1.5592220e+00   1.8607534e+04   1.0000000e+00   4.2203680e-01   2.3028187e-01   1.2527579e-01
   1.1965000e+04   1.1972928e+01   9.6498789e+03   9.1060654e+01   1.6670970e+02   6.1152598e+01   2.6238372e+00   2.3021942e+00   1.5566420e+00   1.8607379e+04   1.0000000e+00   4.9760660e-01   2.1968718e-01   1.5638413e-01
   1.1965500e+04   1.2015198e+01   9.6498789e+03   9.1097123e+01   1.6835539e+02   6.6140963e+01   2.5069976e+00   2.3186270e+00   1.5690054e+00   1.8607225e+04   1.0000000e+00   5.2985340e-01   2.1035282e-01   1.8400561e-01
   1.1966000e+04   1.1970640e+01   9.6498789e+03   9.1104500e+01   1.6932547e+02   7.2458544e+01   2.2107584e+00   2.3278508e+00   1.6034986e+00   1.8607072e+04   1.0000000e+00   5.0377660e-01   2.0510876e-01   1.9932360e-01
   1.1966500e+04   1.1922098e+01   9.6498789e+03   9.1060383e+01   1.6876152e+02   7.7676812e+01   2.0733280e+00   2.3280746e+00   1.6604090e+00   1.8606919e+04   1.0000000e+00   4.3078180e-01   2.0496101e-01   1.9886606e-01
   1.1967000e+04   1.1914852e+01   9.6498789e+03   9.0949238e+01   1.6714221e+02   7.9425795e+01   2.1090604e+00   2.3212238e+00   1.7385194e+00   1.8606764e+04   1.0000000e+00   3.3861000e-01   2.0880680e-01   1.8549908e-01
   1.1967500e+04   1.1938186e+01   9.6498789e+03   9.0742959e+01   1.6461036e+02   7.6885451e+01   2.1427762e+00   2.3122238e+00   1.8417460e+00   1.8606610e+04   1.0000000e+00   2.5439560e-01   2.1383191e-01   1.6682627e-01
   1.1968000e+04   1.1955136e+01   9.6498789e+03   9.0382499e+01   1.6203759e+02   7.1134567e+01   2.1588360e+00   2.3070746e+00   1.9876806e+00   1.8606456e+04   1.0000000e+00   1.9404320e-01   2.1659439e-01   1.5155117e-01
   1.1968500e+04   1.1932320e+01   9.6498789e+03   8.9785725e+01   1.6033912e+02   6.4282660e+01   2.1871794e+00   2.3111344e+00   2.2022492e+00   1.8606303e+04   1.0000000e+00   1.6129820e-01   2.1400362e-01   1.4675587e-01
   1.1969000e+04   1.1913506e+01   9.6498789e+03   8.8887007e+01   1.5950301e+02   5.8253495e+01   2.1855222e+00   2.3268360e+00   2.5020514e+00   1.8606149e+04   1.0000000e+00   1.5123820e-01   2.0463903e-01   1.5494832e-01
   1.1969500e+04   1.1928976e+01   9.6498789e+03   8.7684426e+01   1.5973657e+02   5.4088777e+01   2.2293440e+00   2.3519704e+00   2.8680342e+00   1.8605995e+04   1.0000000e+00   1.5360260e-01   1.8975208e-01   1.7228070e-01
   1.1970000e+04   1.1966606e+01   9.6498789e+03   8.6279257e+01   1.6002379e+02   5.1951123e+01   2.5506608e+00   2.3799704e+00   3.2200070e+00   1.8605840e+04   1.0000000e+00   1.5819640e-01   1.7312976e-01   1.9003150e-01
   1.1970500e+04   1.1971728e+01   9.6498789e+03   8.4886764e+01   1.5919757e+02   5.1382548e+01   3.0237110e+00   2.4027874e+00   3.3998122e+00   1.8605687e+04   1.0000000e+00   1.6021360e-01   1.5946719e-01   1.9971367e-01
