~Version                                                                        
 VERS.                2.0 :   CWLS Log ASCII Standard -VERSION 2.0              
 WRAP.                 NO :   One line per depth step                           
~Well Information Block                                                         
#MNEM.UNIT       Data                        Description of Mnemonic            
#----.----      -------------------------- : ------------------------------     
STRT.M           9775.000000               : Start Depth                        
STOP.M           16350.000000              : End Depth                          
STEP.M           0.500000                  : Depth Increment                    
NULL.             -999.250000              : NULL Value                         
COMP.                                      : Company                            
WELL.         6707101_NORWAY               : Well Name                          
UWI .                                      : Unique Well ID                     
~Parameter Information Block                                                    
#----.----      -------------------------- : -----------------------------      
DREF.                  KB                 : Depth Reference                     
EREF.M                                     : Elevation of Depth Reference       
~Tops                                                                           
#TOPS NAME   .        DEPTH:                                                    
~Curve Information Block                                                        
#MNEM.UNIT        API CODE                   Curve Description                  
#----.----      LG--CV-CL--M               : -----------------                  
 depth.F                         : depth index                                  
 CALI.IN                         :   14  CALI                                   
 DBML.F                          :   water depth = 4180 ft.                     
 DT.US/F                         :   13  DT                                     
 DTS.USEC/FT                     :   Shear sonic from D. Neff's IPT project     
 GR.GAPI                         :   12  GR                                     
 RDEEP.OHMM                      :   5   RDEEP                                  
 RHOB.G/C3                       :   10  RHOB                                   
 RO.OHMM                         :   Rt for water saturated formation           
 SALW.PPM                        :   Curve replaced from 7250.89 to 16349.56    
 SW.V/V                          :   IFC(SW_NOCLIP>.85,1,SW)                    
 VSH.V/V                         :   Limited volume of shale                    
 phit.V/V                        : total porosity                               
 xsh.V/V                         : total shale fraction                         
~Asc Depth                                                                      
# ...
   1.5895000e+04   8.5491440e+00   1.1629700e+04   8.7747179e+01   1.6853298e+02   1.0814035e+02   3.1876847e+00   2.5630000e+00   4.2986577e+00   1.8580873e+04   1.0000000e+00   8.3288620e-01   7.0187417e-02   5.6736717e-01
   1.5895500e+04   8.5590730e+00   1.1630200e+04   8.7623535e+01   1.6848861e+02   1.0715116e+02   3.2815474e+00   2.5634247e+00   4.3611739e+00   1.8581463e+04   1.0000000e+00   8.3950120e-01   6.9866280e-02   5.6503702e-01
   1.5896000e+04   8.5668580e+00   1.1630700e+04   8.7492063e+01   1.6852888e+02   1.0556390e+02   3.4221347e+00   2.5638829e+00   4.4386976e+00   1.8582053e+04   1.0000000e+00   8.5118050e-01   6.9521219e-02   5.6257526e-01
   1.5896500e+04   8.5786450e+00   1.1631200e+04   8.7389765e+01   1.6856747e+02   1.0400312e+02   3.5399097e+00   2.5644288e+00   4.6294715e+00   1.8582643e+04   1.0000000e+00   8.6622370e-01   6.9145911e-02   5.6097066e-01
   1.5897000e+04   8.5910730e+00   1.1631700e+04   8.7332548e+01   1.6848361e+02   1.0299282e+02   3.5239879e+00   2.5656848e+00   4.9128288e+00   1.8583234e+04   1.0000000e+00   8.8070910e-01   6.8399873e-02   5.6162761e-01
   1.5897500e+04   8.6007870e+00   1.1632200e+04   8.7296991e+01   1.6785540e+02   1.0257047e+02   3.3391021e+00   2.5671658e+00   5.1851080e+00   1.8583825e+04   1.0000000e+00   8.9010100e-01   6.7541086e-02   5.6317682e-01
   1.5898000e+04   8.5994990e+00   1.1632700e+04   8.7227672e+01   1.6600950e+02   1.0242313e+02   3.1579668e+00   2.5686941e+00   5.3980913e+00   1.8584414e+04   1.0000000e+00   8.9420750e-01   6.6633399e-02   5.6397923e-01
   1.5898500e+04   8.5931420e+00   1.1633200e+04   8.7066934e+01   1.6363290e+02   1.0234652e+02   2.9689704e+00   2.5709231e+00   5.5208980e+00   1.8585006e+04   1.0000000e+00   8.9863650e-01   6.5270560e-02   5.6370095e-01
   1.5899000e+04   8.5871420e+00   1.1633700e+04   8.6791564e+01   1.6159857e+02   1.0241663e+02   2.8663903e+00   2.5741578e+00   5.5271017e+00   1.8585596e+04   1.0000000e+00   9.0908760e-01   6.3265245e-02   5.6227295e-01
   1.5899500e+04   8.5875720e+00   1.1634200e+04   8.6430037e+01   1.6014684e+02   1.0278961e+02   2.8519467e+00   2.5780204e+00   5.4275309e+00   1.8586186e+04   1.0000000e+00   9.2138740e-01   6.0849200e-02   5.5977217e-01
   1.5900000e+04   8.5857850e+00   1.1634700e+04   8.6050795e+01   1.5959449e+02   1.0353817e+02   2.8955511e+00   2.5820319e+00   5.3308034e+00   1.8586777e+04   1.0000000e+00   9.2084180e-01   5.8337518e-02   5.5708271e-01
   1.5900500e+04   8.5897870e+00   1.1635200e+04   8.5725498e+01   1.5968166e+02   1.0459467e+02   2.9613714e+00   2.5855985e+00   5.3671284e+00   1.8587368e+04   1.0000000e+00   8.9524490e-01   5.6112068e-02   5.5497595e-01
   1.5901000e+04   8.6071460e+00   1.1635700e+04   8.5487589e+01   1.6017935e+02   1.0571207e+02   3.1161363e+00   2.5883334e+00   5.5013577e+00   1.8587957e+04   1.0000000e+00   8.4809950e-01   5.4412917e-02   5.5363352e-01
   1.5901500e+04   8.6265740e+00   1.1636200e+04   8.5317089e+01   1.6108712e+02   1.0654831e+02   3.3423566e+00   2.5900985e+00   5.7194291e+00   1.8588547e+04   1.0000000e+00   7.9826460e-01   5.3305250e-02   5.5235921e-01
   1.5902000e+04   8.5886330e+00   1.1636700e+04   8.5159133e+01   1.6255905e+02   1.0697799e+02   3.5806402e+00   2.5908579e+00   5.9358351e+00   1.8589138e+04   1.0000000e+00   7.6525360e-01   5.2774286e-02   5.4979435e-01
   1.5902500e+04   8.5074160e+00   1.1637200e+04   8.4962080e+01   1.6436150e+02   1.0731146e+02   3.6921760e+00   2.5906114e+00   6.2442530e+00   1.8589729e+04   1.0000000e+00   7.5633570e-01   5.2787282e-02   5.4472245e-01
   1.5903000e+04   8.4644260e+00   1.1637700e+04   8.4710286e+01   1.6624715e+02   1.0799009e+02   3.6863076e+00   2.5897494e+00   6.5072933e+00   1.8590319e+04   1.0000000e+00   7.6697380e-01   5.3114036e-02   5.3740754e-01
   1.5903500e+04   8.4727890e+00   1.1638200e+04   8.4439474e+01   1.6797048e+02   1.0889047e+02   3.6202159e+00   2.5891386e+00   6.8891473e+00   1.8590910e+04   1.0000000e+00   7.8794620e-01   5.3287615e-02   5.3007546e-01
   1.5904000e+04   8.5073630e+00   1.1638700e+04   8.4224800e+01   1.6922176e+02   1.0906085e+02   3.5761004e+00   2.5890000e+00   7.5281038e+00   1.8591500e+04   1.0000000e+00   8.1006020e-01   5.3230382e-02   5.2483082e-01
   1.5904500e+04   8.5509350e+00   1.1639200e+04   8.4155795e+01   1.7018787e+02   1.0750447e+02   3.5907848e+00   2.5893956e+00   8.3746233e+00   1.8592090e+04   1.0000000e+00   8.2541600e-01   5.2962869e-02   5.2383422e-01
   1.5905000e+04   8.5817890e+00   1.1639700e+04   8.4303497e+01   1.7110792e+02   1.0423669e+02   3.6294200e+00   2.5902623e+00   9.6279346e+00   1.8592681e+04   1.0000000e+00   8.3124320e-01   5.2565189e-02   5.2863015e-01
   1.5905500e+04   8.5668520e+00   1.1640200e+04   8.4686689e+01   1.7196506e+02   1.0049156e+02   3.5956385e+00   2.5919304e+00   1.0926038e+01   1.8593272e+04   1.0000000e+00   8.3132840e-01   5.1863710e-02   5.4023177e-01
   1.5906000e+04   8.5167060e+00   1.1640700e+04   8.5257776e+01   1.7266082e+02   9.7781716e+01   3.5653533e+00   2.5942702e+00   1.1804570e+01   1.8593862e+04   1.0000000e+00   8.3122150e-01   5.0904921e-02   5.5743488e-01
   1.5906500e+04   8.4805680e+00   1.1641200e+04   8.5917565e+01   1.7325751e+02   9.6837910e+01   3.4806048e+00   2.5971130e+00   1.2036561e+01   1.8594453e+04   1.0000000e+00   8.3281460e-01   4.9723601e-02   5.7772843e-01
   1.5907000e+04   8.4694280e+00   1.1641700e+04   8.6550436e+01   1.7383532e+02   9.7448705e+01   3.3866217e+00   2.6011325e+00   1.1353450e+01   1.8595043e+04   1.0000000e+00   8.3610770e-01   4.7864746e-02   5.9942517e-01
   1.5907500e+04   8.4757160e+00   1.1642200e+04   8.7067343e+01   1.7441025e+02   9.8948925e+01   3.2823938e+00   2.6059842e+00   1.0031782e+01   1.8595633e+04   1.0000000e+00   8.4393000e-01   4.5462796e-02   6.1974589e-01
   1.5908000e+04   8.4960750e+00   1.1642700e+04   8.7435185e+01   1.7498148e+02   1.0061555e+02   3.1186498e+00   2.6113391e+00   8.7258838e+00   1.8596223e+04   1.0000000e+00   8.5804520e-01   4.2678789e-02   6.3724661e-01
   1.5908500e+04   8.5165740e+00   1.1643200e+04   8.7675764e+01   1.7540945e+02   1.0181845e+02   2.9933549e+00   2.6164453e+00   7.6673825e+00   1.8596814e+04   1.0000000e+00   8.7348070e-01   3.9950365e-02   6.5119887e-01
   1.5909000e+04   8.5146410e+00   1.1643700e+04   8.7840063e+01   1.7546895e+02   1.0230883e+02   2.9326311e+00   2.6200570e+00   6.9244978e+00   1.8597405e+04   1.0000000e+00   8.8072900e-01   3.8016030e-02   6.6090232e-01
   1.5909500e+04   8.4907100e+00   1.1644200e+04   8.7975171e+01   1.7531725e+02   1.0234565e+02   2.9746396e+00   2.6216885e+00   6.3887655e+00   1.8597995e+04   1.0000000e+00   8.7562720e-01   3.7182953e-02   6.6679799e-01
   1.5910000e+04   8.4754990e+00   1.1644700e+04   8.8103832e+01   1.7517536e+02   1.0234533e+02   3.0914512e+00   2.6210319e+00   6.0108836e+00   1.8598586e+04   1.0000000e+00   8.6429110e-01   3.7641314e-02   6.6899347e-01
   1.5910500e+04   8.4736430e+00   1.1645200e+04   8.8223119e+01   1.7519940e+02   1.0246343e+02   3.1751410e+00   2.6178226e+00   5.7704787e+00   1.8599176e+04   1.0000000e+00   8.5533470e-01   3.9538464e-02   6.6698785e-01
   1.5911000e+04   8.4772150e+00   1.1645700e+04   8.8319452e+01   1.7558013e+02   1.0273174e+02   3.0847344e+00   2.6131833e+00   5.5707357e+00   1.8599766e+04   1.0000000e+00   8.5080670e-01   4.2228438e-02   6.6213976e-01
   1.5911500e+04   8.4815720e+00   1.1646200e+04   8.8384229e+01   1.7605987e+02   1.0336915e+02   2.9226137e+00   2.6081992e+00   5.3809237e+00   1.8600357e+04   1.0000000e+00   8.4661360e-01   4.5090519e-02   6.5590185e-01
   1.5912000e+04   8.4836430e+00   1.1646700e+04   8.8417404e+01   1.7625022e+02   1.0446581e+02   2.8767343e+00   2.6035360e+00   5.2668464e+00   1.8600948e+04   1.0000000e+00   8.4020610e-01   4.7747468e-02   6.4929207e-01
   1.5912500e+04   8.4794990e+00   1.1647200e+04   8.8424782e+01   1.7613892e+02   1.0556837e+02   2.9633285e+00   2.5993755e+00   5.2478446e+00   1.8601537e+04   1.0000000e+00   8.3470650e-01   5.0101731e-02   6.4279243e-01
