~Version                                                                        
 VERS.                2.0 :   CWLS Log ASCII Standard -VERSION 2.0              
 WRAP.                 NO :   One line per depth step                           
~Well Information Block                                                         
#MNEM.UNIT       Data                        Description of Mnemonic            
#----.----      -------------------------- : ------------------------------     
STRT.M           9775.000000               : Start Depth                        
STOP.M           16350.000000              : End Depth                          
STEP.M           0.500000                  : Depth Increment                    
NULL.             -999.250000              : NULL Value                         
COMP.                                      : Company                            
WELL.         6707101_NORWAY               : Well Name                          
UWI .                                      : Unique Well ID                     
~Parameter Information Block                                                    
#----.----      -------------------------- : -----------------------------      
DREF.                  KB                 : Depth Reference                     
EREF.M                                     : Elevation of Depth Reference       
~Tops                                                                           
#TOPS NAME   .        DEPTH:                                                    
~Curve Information Block                                                        
#MNEM.UNIT        API CODE                   Curve Description                  
#----.----      LG--CV-CL--M               : -----------------                  
 depth.F                         : depth index                                  
 CALI.IN                         :   14  CALI                                   
 DBML.F                          :   water depth = 4180 ft.                     
 DT.US/F                         :   13  DT                                     
 DTS.USEC/FT                     :   Shear sonic from D. Neff's IPT project     
 GR.GAPI                         :   12  GR                                     
 RDEEP.OHMM                      :   5   RDEEP                                  
 RHOB.G/C3                       :   10  RHOB                                   
 RO.OHMM                         :   Rt for water saturated formation           
 SALW.PPM                        :   Curve replaced from 7250.89 to 16349.56    
 SW.V/V                          :   IFC(SW_NOCLIP>.85,1,SW)                    
 VSH.V/V                         :   Limited volume of shale                    
 phit.V/V                        : total porosity                               
 xsh.V/V                         : total shale fraction                         
~Asc Depth                                                                      
# ...
   1.5013000e+04   8.7483676e+00   1.0747700e+04   8.1873147e+01   1.5612849e+02   7.7705618e+01   6.1989848e+00   2.5892552e+00   5.3073049e+00   1.7881318e+04   1.0000000e+00   8.4021876e-01   5.2969558e-02   5.1405655e-01
   1.5013500e+04   8.6251480e+00   1.0748200e+04   8.3911331e+01   1.5665828e+02   8.0850363e+01   5.8689245e+00   2.5855414e+00   4.9237592e+00   1.7881571e+04   1.0000000e+00   8.7014168e-01   5.6415721e-02   5.5857441e-01
   1.5014000e+04   8.6007136e+00   1.0748700e+04   8.5120780e+01   1.5665451e+02   8.5199743e+01   5.5789449e+00   2.5824287e+00   4.6370696e+00   1.7881824e+04   1.0000000e+00   8.7081488e-01   5.8997062e-02   5.8437450e-01
   1.5014500e+04   8.6705656e+00   1.0749200e+04   8.5767151e+01   1.5681824e+02   9.0009527e+01   5.4291800e+00   2.5803013e+00   4.5577216e+00   1.7882076e+04   1.0000000e+00   8.4781600e-01   6.0644264e-02   5.9761662e-01
   1.5015000e+04   8.7635664e+00   1.0749700e+04   8.6049503e+01   1.5773501e+02   9.4828221e+01   5.4508958e+00   2.5808418e+00   4.6895739e+00   1.7882329e+04   1.0000000e+00   8.1781600e-01   6.0532274e-02   6.0575195e-01
   1.5015500e+04   8.8387104e+00   1.0750200e+04   8.6083381e+01   1.5898189e+02   9.9366456e+01   5.5243266e+00   2.5826682e+00   4.8735402e+00   1.7882582e+04   1.0000000e+00   7.9797224e-01   5.9520722e-02   6.0948584e-01
   1.5016000e+04   8.9092816e+00   1.0750700e+04   8.5946038e+01   1.6045311e+02   1.0309701e+02   5.5203771e+00   2.5854791e+00   5.0166927e+00   1.7882835e+04   1.0000000e+00   7.9656396e-01   5.7832852e-02   6.1031571e-01
   1.5016500e+04   8.8327948e+00   1.0751200e+04   8.5702453e+01   1.6236006e+02   1.0520480e+02   5.3563197e+00   2.5876376e+00   5.1512921e+00   1.7883088e+04   1.0000000e+00   8.1055608e-01   5.6440491e-02   6.0734498e-01
   1.5017000e+04   8.6937216e+00   1.0751700e+04   8.5421149e+01   1.6507281e+02   1.0518475e+02   5.1675882e+00   2.5888111e+00   5.2306259e+00   1.7883340e+04   1.0000000e+00   8.2902752e-01   5.5580222e-02   6.0185865e-01
   1.5017500e+04   8.6203596e+00   1.0752200e+04   8.5177317e+01   1.6792595e+02   1.0348386e+02   5.0558895e+00   2.5873930e+00   5.1143975e+00   1.7883593e+04   1.0000000e+00   8.3984248e-01   5.6214475e-02   5.9329805e-01
   1.5018000e+04   8.6172132e+00   1.0752700e+04   8.5054922e+01   1.7060544e+02   1.0130910e+02   5.0126304e+00   2.5854084e+00   4.9369806e+00   1.7883846e+04   1.0000000e+00   8.3795752e-01   5.7253412e-02   5.8698946e-01
   1.5018500e+04   8.6535688e+00   1.0753200e+04   8.5125869e+01   1.7384100e+02   9.9884655e+01   5.0036994e+00   2.5818478e+00   4.7494258e+00   1.7884099e+04   1.0000000e+00   8.2717932e-01   5.9317008e-02   5.8315347e-01
   1.5019000e+04   8.7021400e+00   1.0753700e+04   8.5425549e+01   1.7836390e+02   9.9790852e+01   4.9180070e+00   2.5778781e+00   4.6163911e+00   1.7884351e+04   1.0000000e+00   8.1440072e-01   6.1768031e-02   5.8451514e-01
   1.5019500e+04   8.7534256e+00   1.0754200e+04   8.5935443e+01   1.8234467e+02   1.0081340e+02   4.7751703e+00   2.5731361e+00   4.4902939e+00   1.7884603e+04   1.0000000e+00   8.0392196e-01   6.4800158e-02   5.9004992e-01
   1.5020000e+04   8.7630008e+00   1.0754700e+04   8.6578768e+01   1.8445213e+02   1.0215605e+02   4.5868109e+00   2.5689399e+00   4.3632139e+00   1.7884857e+04   1.0000000e+00   7.9719316e-01   6.7616358e-02   5.9993615e-01
   1.5020500e+04   8.7014336e+00   1.0755200e+04   8.7244333e+01   1.8569481e+02   1.0294666e+02   4.4510791e+00   2.5649702e+00   4.2247443e+00   1.7885109e+04   1.0000000e+00   7.9703556e-01   7.0321265e-02   6.1081852e-01
   1.5021000e+04   8.6037916e+00   1.0755700e+04   8.7826636e+01   1.8617926e+02   1.0282511e+02   4.3367784e+00   2.5625005e+00   4.0841649e+00   1.7885362e+04   1.0000000e+00   8.0789912e-01   7.2122198e-02   6.2201752e-01
   1.5021500e+04   8.5612148e+00   1.0756200e+04   8.8267523e+01   1.8566816e+02   1.0205562e+02   4.2194119e+00   2.5620000e+00   3.9626494e+00   1.7885615e+04   1.0000000e+00   8.3011280e-01   7.2713593e-02   6.3278064e-01
   1.5022000e+04   8.5785696e+00   1.0756700e+04   8.8557601e+01   1.8357129e+02   1.0112504e+02   4.0650620e+00   2.5634689e+00   3.8840748e+00   1.7885867e+04   1.0000000e+00   8.5765552e-01   7.2088449e-02   6.4284992e-01
   1.5022500e+04   8.6234256e+00   1.0757200e+04   8.8704568e+01   1.8031452e+02   1.0034324e+02   3.8911145e+00   2.5669069e+00   3.8755346e+00   1.7886120e+04   1.0000000e+00   8.8342004e-01   7.0251526e-02   6.5239479e-01
   1.5023000e+04   8.6734972e+00   1.0757700e+04   8.8697133e+01   1.7579052e+02   9.9824620e+01   3.7994238e+00   2.5715957e+00   3.9368166e+00   1.7886373e+04   1.0000000e+00   9.0302760e-01   6.7598501e-02   6.5986801e-01
   1.5023500e+04   8.6813580e+00   1.0758200e+04   8.8497096e+01   1.7177384e+02   9.9786726e+01   3.8570889e+00   2.5751344e+00   4.0179098e+00   1.7886626e+04   1.0000000e+00   9.1199260e-01   6.5456268e-02   6.6026122e-01
   1.5024000e+04   8.6303612e+00   1.0758700e+04   8.8062655e+01   1.6938623e+02   1.0054602e+02   3.9781671e+00   2.5781116e+00   4.1874874e+00   1.7886879e+04   1.0000000e+00   9.0685060e-01   6.3463564e-02   6.5345404e-01
   1.5024500e+04   8.5786452e+00   1.0759200e+04   8.7377747e+01   1.6713218e+02   1.0213444e+02   4.0514173e+00   2.5790000e+00   4.2929333e+00   1.7887131e+04   1.0000000e+00   8.8953692e-01   6.2475072e-02   6.3665761e-01
   1.5025000e+04   8.5543580e+00   1.0759700e+04   8.6464218e+01   1.6417852e+02   1.0413972e+02   4.1598446e+00   2.5783116e+00   4.3432540e+00   1.7887384e+04   1.0000000e+00   8.6798696e-01   6.2223040e-02   6.1150808e-01
   1.5025500e+04   8.5361440e+00   1.0760200e+04   8.5382510e+01   1.6110582e+02   1.0606460e+02   4.4457356e+00   2.5780000e+00   4.4159953e+00   1.7887637e+04   1.0000000e+00   8.4959380e-01   6.1651350e-02   5.8296899e-01
   1.5026000e+04   8.5245004e+00   1.0760700e+04   8.4216733e+01   1.5823403e+02   1.0756828e+02   4.8481080e+00   2.5793463e+00   4.5406344e+00   1.7887890e+04   1.0000000e+00   8.3521504e-01   6.0097399e-02   5.5541429e-01
   1.5026500e+04   8.5297136e+00   1.0761200e+04   8.3052775e+01   1.5536679e+02   1.0831791e+02   5.1752835e+00   2.5846588e+00   4.9275632e+00   1.7888142e+04   1.0000000e+00   8.2072944e-01   5.6311548e-02   5.3463878e-01
   1.5027000e+04   8.5340000e+00   1.0761700e+04   8.1959881e+01   1.5244412e+02   1.0805516e+02   5.3841981e+00   2.5955523e+00   6.1283740e+00   1.7888394e+04   1.0000000e+00   8.0315108e-01   4.9417185e-02   5.2460550e-01
   1.5027500e+04   8.5352856e+00   1.0762200e+04   8.0983979e+01   1.4986998e+02   1.0688088e+02   5.5837427e+00   2.6110522e+00   9.0481049e+00   1.7888648e+04   1.0000000e+00   7.8206556e-01   3.9985990e-02   5.2451971e-01
   1.5028000e+04   8.5417852e+00   1.0762700e+04   8.0156462e+01   1.4799670e+02   1.0531877e+02   5.7839956e+00   2.6285975e+00   1.6462736e+01   1.7888900e+04   1.0000000e+00   7.5680868e-01   2.9483339e-02   5.3091324e-01
   1.5028500e+04   8.5430716e+00   1.0763200e+04   7.9505393e+01   1.4682458e+02   1.0391669e+02   6.0470652e+00   2.6433538e+00   3.3809438e+01   1.7889153e+04   1.0000000e+00   7.2900876e-01   3.0398042e-02   5.1020219e-01
   1.5029000e+04   8.5117884e+00   1.0763700e+04   7.9057874e+01   1.4640288e+02   1.0280282e+02   6.3034406e+00   2.6518556e+00   5.9925275e+01   1.7889406e+04   1.0000000e+00   7.0649396e-01   2.9971495e-02   5.0150245e-01
   1.5029500e+04   8.4808584e+00   1.0764200e+04   7.8835586e+01   1.4634438e+02   1.0172813e+02   6.5652854e+00   2.6514296e+00   5.7194378e+01   1.7889658e+04   1.0000000e+00   6.9960000e-01   2.9780702e-02   4.9761358e-01
   1.5030000e+04   8.4774996e+00   1.0764700e+04   7.8844148e+01   1.4644017e+02   1.0045894e+02   6.3411296e+00   2.6429314e+00   3.3864614e+01   1.7889911e+04   1.0000000e+00   7.0982052e-01   2.9792840e-02   4.9786580e-01
   1.5030500e+04   8.4838568e+00   1.0765200e+04   7.9055885e+01   1.4671380e+02   9.8931238e+01   5.7233894e+00   2.6293610e+00   1.7460968e+01   1.7890164e+04   1.0000000e+00   7.2668472e-01   2.8362098e-02   5.0630605e-01
