~Version                                                                        
 VERS.                2.0 :   CWLS Log ASCII Standard -VERSION 2.0              
 WRAP.                 NO :   One line per depth step                           
~Well Information Block                                                         
#MNEM.UNIT       Data                        Description of Mnemonic            
#----.----      -------------------------- : ------------------------------     
STRT.M           9775.000000               : Start Depth                        
STOP.M           16350.000000              : End Depth                          
STEP.M           0.500000                  : Depth Increment                    
NULL.             -999.250000              : NULL Value                         
COMP.                                      : Company                            
WELL.         6707101_NORWAY               : Well Name                          
UWI .                                      : Unique Well ID                     
~Parameter Information Block                                                    
#----.----      -------------------------- : -----------------------------      
DREF.                  KB                 : Depth Reference                     
EREF.M                                     : Elevation of Depth Reference       
~Tops                                                                           
#TOPS NAME   .        DEPTH:                                                    
~Curve Information Block                                                        
#MNEM.UNIT        API CODE                   Curve Description                  
#----.----      LG--CV-CL--M               : -----------------                  
 depth.F                         : depth index                                  
 CALI.IN                         :   14  CALI                                   
 DBML.F                          :   water depth = 4180 ft.                     
 DT.US/F                         :   13  DT                                     
 DTS.USEC/FT                     :   Shear sonic from D. Neff's IPT project     
 GR.GAPI                         :   12  GR                                     
 RDEEP.OHMM                      :   5   RDEEP                                  
 RHOB.G/C3                       :   10  RHOB                                   
 RO.OHMM                         :   Rt for water saturated formation           
 SALW.PPM                        :   Curve replaced from 7250.89 to 16349.56    
 SW.V/V                          :   IFC(SW_NOCLIP>.85,1,SW)                    
 VSH.V/V                         :   Limited volume of shale                    
 phit.V/V                        : total porosity                               
 xsh.V/V                         : total shale fraction                         
~Asc Depth                                                                      
# ...
   1.1089000e+04   1.1982208e+01   9.6498789e+03   9.4221469e+01   1.7974725e+02   6.7704266e+01   2.4462354e+00   2.3352708e+00   2.2100251e+00   1.8524828e+04   1.0000000e+00   4.2575664e-01   2.0153461e-01   2.2252200e-01
   1.1089500e+04   1.1976301e+01   9.6498789e+03   9.4305723e+01   1.7909091e+02   6.8339522e+01   2.6573459e+00   2.3386721e+00   2.2933206e+00   1.8525249e+04   1.0000000e+00   4.3687136e-01   1.9962583e-01   2.2954465e-01
   1.1090000e+04   1.1972000e+01   9.6498789e+03   9.4531711e+01   1.7772034e+02   6.8717252e+01   2.5841686e+00   2.3488740e+00   2.3932051e+00   1.8525670e+04   1.0000000e+00   4.7726144e-01   1.9388973e-01   2.5012103e-01
   1.1090500e+04   1.1979058e+01   9.6498789e+03   9.4806461e+01   1.7516135e+02   6.9061018e+01   2.2832667e+00   2.3631701e+00   2.4704890e+00   1.8526091e+04   1.0000000e+00   5.4426336e-01   1.8583769e-01   2.7834910e-01
   1.1091000e+04   1.1997757e+01   9.6498789e+03   9.5062913e+01   1.7301202e+02   7.0433796e+01   2.4466911e+00   2.3774965e+00   2.5049714e+00   1.8526512e+04   1.0000000e+00   6.0333664e-01   1.7776540e-01   3.0649679e-01
   1.1091500e+04   1.2014982e+01   9.6498789e+03   9.5284593e+01   1.7253132e+02   7.3594006e+01   3.3180649e+00   2.3862845e+00   2.4971131e+00   1.8526933e+04   1.0000000e+00   6.1447072e-01   1.7284700e-01   3.2520033e-01
   1.1092000e+04   1.1981504e+01   9.6498789e+03   9.5499477e+01   1.7365342e+02   7.7621771e+01   3.8305796e+00   2.3857195e+00   2.4433614e+00   1.8527355e+04   1.0000000e+00   5.6530304e-01   1.7327245e-01   3.2872499e-01
   1.1092500e+04   1.1951018e+01   9.6498789e+03   9.5726749e+01   1.7709805e+02   8.0192203e+01   3.3962967e+00   2.3742868e+00   2.3606618e+00   1.8527775e+04   1.0000000e+00   4.7840640e-01   1.7991375e-01   3.1489562e-01
   1.1093000e+04   1.1946642e+01   9.6498789e+03   9.5936168e+01   1.8195905e+02   7.9443765e+01   2.7180218e+00   2.3563623e+00   2.2674630e+00   1.8528196e+04   1.0000000e+00   3.9042640e-01   1.9025515e-01   2.9014188e-01
   1.1093500e+04   1.1945075e+01   9.6498789e+03   9.6042767e+01   1.8798819e+02   7.5448896e+01   2.3407035e+00   2.3372630e+00   2.1993235e+00   1.8528617e+04   1.0000000e+00   3.3015232e-01   2.0122012e-01   2.6142517e-01
   1.1094000e+04   1.1943358e+01   9.6498789e+03   9.5934116e+01   1.9341451e+02   6.9977305e+01   2.1008978e+00   2.3244123e+00   2.1840571e+00   1.8529038e+04   1.0000000e+00   3.1531728e-01   2.0851710e-01   2.3862195e-01
   1.1094500e+04   1.1944925e+01   9.6498789e+03   9.5527211e+01   1.9594932e+02   6.5144541e+01   1.9770979e+00   2.3227859e+00   2.2129189e+00   1.8529459e+04   1.0000000e+00   3.5852480e-01   2.0926481e-01   2.2814691e-01
   1.1095000e+04   1.1971664e+01   9.6498789e+03   9.4818425e+01   1.9560859e+02   6.2510182e+01   1.9623378e+00   2.3324934e+00   2.2744160e+00   1.8529880e+04   1.0000000e+00   4.5353840e-01   2.0339652e-01   2.2999651e-01
   1.1095500e+04   1.2012306e+01   9.6498789e+03   9.3904256e+01   1.9321017e+02   6.3095196e+01   2.2513805e+00   2.3509236e+00   2.3555134e+00   1.8530301e+04   1.0000000e+00   5.5644096e-01   1.9244445e-01   2.4167803e-01
   1.1096000e+04   1.2034058e+01   9.6498789e+03   9.2958416e+01   1.8931382e+02   6.7197772e+01   2.8627173e+00   2.3702260e+00   2.4523848e+00   1.8530722e+04   1.0000000e+00   6.0353376e-01   1.8097563e-01   2.5397634e-01
   1.1096500e+04   1.2028376e+01   9.6498789e+03   9.2177098e+01   1.8579319e+02   7.3364835e+01   3.2295090e+00   2.3828725e+00   2.5609026e+00   1.8531142e+04   1.0000000e+00   5.6387648e-01   1.7338873e-01   2.5889369e-01
   1.1097000e+04   1.1988354e+01   9.6498789e+03   9.1717385e+01   1.8349860e+02   7.8244955e+01   2.7981804e+00   2.3858117e+00   2.6331083e+00   1.8531564e+04   1.0000000e+00   4.7069616e-01   1.7150440e-01   2.5481099e-01
   1.1097500e+04   1.1965150e+01   9.6498789e+03   9.1646904e+01   1.8301857e+02   7.8745921e+01   2.3047758e+00   2.3794652e+00   2.6088186e+00   1.8531984e+04   1.0000000e+00   3.8934288e-01   1.7511134e-01   2.4369746e-01
   1.1098000e+04   1.1964283e+01   9.6498789e+03   9.1932392e+01   1.8547476e+02   7.4766316e+01   2.0631728e+00   2.3673152e+00   2.5198851e+00   1.8532405e+04   1.0000000e+00   3.5585344e-01   1.8219783e-01   2.3023930e-01
   1.1098500e+04   1.1963075e+01   9.6498789e+03   9.2469766e+01   1.8941224e+02   6.9326054e+01   2.0142468e+00   2.3567290e+00   2.4624838e+00   1.8532826e+04   1.0000000e+00   3.5509872e-01   1.8849567e-01   2.2384785e-01
   1.1099000e+04   1.1963925e+01   9.6498789e+03   9.3124196e+01   1.9510458e+02   6.5649131e+01   2.0039420e+00   2.3533353e+00   2.5086082e+00   1.8533247e+04   1.0000000e+00   3.5980976e-01   1.9072458e-01   2.3087495e-01
   1.1099500e+04   1.1997080e+01   9.6498789e+03   9.3822087e+01   1.9935884e+02   6.4474697e+01   2.1066709e+00   2.3596991e+00   2.6647288e+00   1.8533669e+04   1.0000000e+00   3.7303376e-01   1.8739109e-01   2.5426790e-01
   1.1100000e+04   1.2036814e+01   9.6498789e+03   9.4546603e+01   1.9990719e+02   6.4530600e+01   2.2142757e+00   2.3753239e+00   2.8699834e+00   1.8534090e+04   1.0000000e+00   4.2204560e-01   1.7878245e-01   2.9337800e-01
   1.1100500e+04   1.2102894e+01   9.6498789e+03   9.5294946e+01   1.9896581e+02   6.5084270e+01   2.6052466e+00   2.3966518e+00   3.0317819e+00   1.8534511e+04   1.0000000e+00   5.1909904e-01   1.6694249e-01   3.4290775e-01
   1.1101000e+04   1.2169571e+01   9.6498789e+03   9.6055527e+01   1.9784874e+02   6.7085472e+01   3.0382082e+00   2.4179102e+00   3.1392405e+00   1.8534932e+04   1.0000000e+00   6.3555216e-01   1.5516897e-01   3.9347474e-01
   1.1101500e+04   1.2188717e+01   9.6498789e+03   9.6806785e+01   1.9729008e+02   7.1742149e+01   3.5207207e+00   2.4364451e+00   3.2253678e+00   1.8535353e+04   1.0000000e+00   7.1767168e-01   1.4496416e-01   4.4016865e-01
   1.1102000e+04   1.2143088e+01   9.6498789e+03   9.7524586e+01   1.9817036e+02   7.8476679e+01   3.3704793e+00   2.4484962e+00   3.3382438e+00   1.8535773e+04   1.0000000e+00   7.2941360e-01   1.3845643e-01   4.7601953e-01
   1.1102500e+04   1.2084637e+01   9.6498789e+03   9.8184185e+01   2.0015239e+02   8.4649489e+01   2.8194709e+00   2.4543417e+00   3.4821949e+00   1.8536194e+04   1.0000000e+00   6.8436240e-01   1.3546747e-01   5.0064850e-01
   1.1103000e+04   1.2072416e+01   9.6498789e+03   9.8750822e+01   2.0204023e+02   8.7467344e+01   2.3203273e+00   2.4558735e+00   3.5754810e+00   1.8536615e+04   1.0000000e+00   6.3933824e-01   1.3489463e-01   5.1618528e-01
   1.1103500e+04   1.2164541e+01   9.6498789e+03   9.9172711e+01   2.0353117e+02   8.6332524e+01   2.2049163e+00   2.4551212e+00   3.5316926e+00   1.8537036e+04   1.0000000e+00   6.4924096e-01   1.3554936e-01   5.2467125e-01
   1.1104000e+04   1.2242230e+01   9.6498789e+03   9.9393468e+01   2.0444658e+02   8.3577728e+01   2.4440739e+00   2.4541162e+00   3.3701163e+00   1.8537457e+04   1.0000000e+00   7.2192544e-01   1.3624137e-01   5.2812239e-01
   1.1104500e+04   1.2349749e+01   9.6498789e+03   9.9365603e+01   2.0451583e+02   8.2712709e+01   2.8353097e+00   2.4540000e+00   3.1995046e+00   1.8537878e+04   1.0000000e+00   8.1532544e-01   1.3629386e-01   5.2733072e-01
   1.1105000e+04   1.2572949e+01   9.6498789e+03   9.9070694e+01   2.0405758e+02   8.5548763e+01   3.0386187e+00   2.4548941e+00   3.1016243e+00   1.8538299e+04   1.0000000e+00   8.7889104e-01   1.3562795e-01   5.2208186e-01
   1.1105500e+04   1.2617030e+01   9.6498789e+03   9.8525172e+01   2.0275173e+02   9.0821623e+01   3.1429212e+00   2.4558993e+00   3.0603069e+00   1.8538720e+04   1.0000000e+00   8.9332608e-01   1.3476607e-01   5.1129546e-01
   1.1106000e+04   1.2421184e+01   9.6498789e+03   9.7815843e+01   2.0161637e+02   9.5594837e+01   3.2459352e+00   2.4541910e+00   3.0358923e+00   1.8539142e+04   1.0000000e+00   8.6826080e-01   1.3536795e-01   4.9237306e-01
   1.1106500e+04   1.2247158e+01   9.6498789e+03   9.7055653e+01   2.0096248e+02   9.7814300e+01   3.1869472e+00   2.4494523e+00   3.0098710e+00   1.8539562e+04   1.0000000e+00   8.1522080e-01   1.3767795e-01   4.6753237e-01
