~Version                                                                        
 VERS.                2.0 :   CWLS Log ASCII Standard -VERSION 2.0              
 WRAP.                 NO :   One line per depth step                           
~Well Information Block                                                         
#MNEM.UNIT       Data                        Description of Mnemonic            
#----.----      -------------------------- : ------------------------------     
STRT.M           9775.000000               : Start Depth                        
STOP.M           16350.000000              : End Depth                          
STEP.M           0.500000                  : Depth Increment                    
NULL.             -999.250000              : NULL Value                         
COMP.                                      : Company                            
WELL.         6707101_NORWAY               : Well Name                          
UWI .                                      : Unique Well ID                     
~Parameter Information Block                                                    
#----.----      -------------------------- : -----------------------------      
DREF.                  KB                 : Depth Reference                     
EREF.M                                     : Elevation of Depth Reference       
~Tops                                                                           
#TOPS NAME   .        DEPTH:                                                    
~Curve Information Block                                                        
#MNEM.UNIT        API CODE                   Curve Description                  
#----.----      LG--CV-CL--M               : -----------------                  
 depth.F                         : depth index                                  
 CALI.IN                         :   14  CALI                                   
 DBML.F                          :   water depth = 4180 ft.                     
 DT.US/F                         :   13  DT                                     
 DTS.USEC/FT                     :   Shear sonic from D. Neff's IPT project     
 GR.GAPI                         :   12  GR                                     
 RDEEP.OHMM                      :   5   RDEEP                                  
 RHOB.G/C3                       :   10  RHOB                                   
 RO.OHMM                         :   Rt for water saturated formation           
 SALW.PPM                        :   Curve replaced from 7250.89 to 16349.56    
 SW.V/V                          :   IFC(SW_NOCLIP>.85,1,SW)                    
 VSH.V/V                         :   Limited volume of shale                    
 phit.V/V                        : total porosity                               
 xsh.V/V                         : total shale fraction                         
~Asc Depth                                                                      
# ...
   1.0657000e+04   1.1961358e+01   9.6498789e+03   9.4761386e+01   1.6961056e+02   5.6664873e+01   2.2701407e+00   2.3174527e+00   2.0894730e+00   1.8161110e+04   1.0000000e+00   2.3894784e-01   2.1163001e-01   1.8001610e-01
   1.0657500e+04   1.1961642e+01   9.6498789e+03   9.5089723e+01   1.7050006e+02   5.6918927e+01   2.3538176e+00   2.3000191e+00   1.9963898e+00   1.8161532e+04   1.0000000e+00   2.3069280e-01   2.2177809e-01   1.5921856e-01
   1.0658000e+04   1.1969699e+01   9.6498789e+03   9.5339645e+01   1.7153344e+02   5.6418675e+01   2.6294832e+00   2.2867123e+00   1.9408373e+00   1.8161953e+04   1.0000000e+00   2.0086080e-01   2.2952332e-01   1.4331950e-01
   1.0658500e+04   1.1984907e+01   9.6498789e+03   9.5530418e+01   1.7272341e+02   5.4700214e+01   2.7494313e+00   2.2767985e+00   1.9017723e+00   1.8162374e+04   1.0000000e+00   1.6880112e-01   2.3529521e-01   1.3154783e-01
   1.0659000e+04   1.1996133e+01   9.6498789e+03   9.5686856e+01   1.7407648e+02   5.2803985e+01   2.5530722e+00   2.2681768e+00   1.8521514e+00   1.8162795e+04   1.0000000e+00   1.5727344e-01   2.4031101e-01   1.2114198e-01
   1.0659500e+04   1.1996434e+01   9.6498789e+03   9.5822190e+01   1.7563095e+02   5.2049001e+01   2.2749089e+00   2.2607891e+00   1.7920699e+00   1.8163216e+04   1.0000000e+00   1.7017360e-01   2.4460927e-01   1.1224523e-01
   1.0660000e+04   1.1996925e+01   9.6498789e+03   9.5928284e+01   1.7734895e+02   5.2737476e+01   2.1507898e+00   2.2529535e+00   1.7361594e+00   1.8163637e+04   1.0000000e+00   1.9271344e-01   2.4915388e-01   1.0216460e-01
   1.0660500e+04   1.2001850e+01   9.6498789e+03   9.5982050e+01   1.7888244e+02   5.4080576e+01   2.2099139e+00   2.2461508e+00   1.7041755e+00   1.8164058e+04   1.0000000e+00   2.0988992e-01   2.5308497e-01   9.2762001e-02
   1.0661000e+04   1.2020682e+01   9.6498789e+03   9.5967819e+01   1.7974497e+02   5.5206333e+01   2.2828248e+00   2.2413519e+00   1.7051766e+00   1.8164478e+04   1.0000000e+00   2.2198592e-01   2.5583851e-01   8.5249841e-02
   1.0661500e+04   1.2040266e+01   9.6498789e+03   9.5892590e+01   1.8006046e+02   5.6059591e+01   2.2655605e+00   2.2410197e+00   1.7307803e+00   1.8164900e+04   1.0000000e+00   2.4088512e-01   2.5600097e-01   8.3474357e-02
   1.0662000e+04   1.2051133e+01   9.6498789e+03   9.5783475e+01   1.8018277e+02   5.7265441e+01   2.2855061e+00   2.2454902e+00   1.7675224e+00   1.8165320e+04   1.0000000e+00   2.7338832e-01   2.5338905e-01   8.8392677e-02
   1.0662500e+04   1.2048226e+01   9.6498789e+03   9.5665226e+01   1.8045393e+02   5.9214362e+01   2.5393510e+00   2.2533444e+00   1.8171088e+00   1.8165741e+04   1.0000000e+00   3.1031840e-01   2.4882811e-01   9.8277867e-02
   1.0663000e+04   1.2039867e+01   9.6498789e+03   9.5536415e+01   1.8133244e+02   6.1412336e+01   2.7705952e+00   2.2632619e+00   1.8693366e+00   1.8166162e+04   1.0000000e+00   3.3212576e-01   2.4307696e-01   1.1111651e-01
   1.0663500e+04   1.2038925e+01   9.6498789e+03   9.5367835e+01   1.8249941e+02   6.2747443e+01   2.6440644e+00   2.2732270e+00   1.9289757e+00   1.8166583e+04   1.0000000e+00   3.2628528e-01   2.3728354e-01   1.2335255e-01
   1.0664000e+04   1.2052832e+01   9.6498789e+03   9.5124068e+01   1.8334819e+02   6.2474068e+01   2.3854185e+00   2.2809354e+00   1.9973045e+00   1.8167005e+04   1.0000000e+00   3.0041040e-01   2.3275876e-01   1.3086251e-01
   1.0664500e+04   1.2068341e+01   9.6498789e+03   9.4791161e+01   1.8350035e+02   6.1014337e+01   2.2774185e+00   2.2876111e+00   2.0680536e+00   1.8167426e+04   1.0000000e+00   2.7999680e-01   2.2879352e-01   1.3526101e-01
   1.0665000e+04   1.2059526e+01   9.6498789e+03   9.4388061e+01   1.8250231e+02   5.9863454e+01   2.2839053e+00   2.2941573e+00   2.1378987e+00   1.8167847e+04   1.0000000e+00   2.9321392e-01   2.2487611e-01   1.3825667e-01
   1.0665500e+04   1.2044942e+01   9.6498789e+03   9.3957902e+01   1.8070898e+02   6.0688499e+01   2.4366180e+00   2.3026688e+00   2.2049173e+00   1.8168267e+04   1.0000000e+00   3.5020848e-01   2.1981821e-01   1.4376068e-01
   1.0666000e+04   1.2039075e+01   9.6498789e+03   9.3555821e+01   1.7876550e+02   6.4122070e+01   2.9141091e+00   2.3142755e+00   2.2661619e+00   1.8168689e+04   1.0000000e+00   4.3128512e-01   2.1299055e-01   1.5439666e-01
   1.0666500e+04   1.2046982e+01   9.6498789e+03   9.3238116e+01   1.7710562e+02   6.9025160e+01   3.4891829e+00   2.3274815e+00   2.3119658e+00   1.8169109e+04   1.0000000e+00   4.9510656e-01   2.0527436e-01   1.6885820e-01
   1.0667000e+04   1.2013504e+01   9.6498789e+03   9.3052259e+01   1.7634648e+02   7.2949764e+01   3.4762928e+00   2.3381154e+00   2.3452405e+00   1.8169530e+04   1.0000000e+00   5.0679904e-01   1.9908734e-01   1.8169263e-01
   1.0667500e+04   1.1990717e+01   9.6498789e+03   9.3028189e+01   1.7638491e+02   7.3740342e+01   2.9163406e+00   2.3430608e+00   2.3448078e+00   1.8169951e+04   1.0000000e+00   4.6129600e-01   1.9623380e-01   1.8874273e-01
   1.0668000e+04   1.1991925e+01   9.6498789e+03   9.3170339e+01   1.7707006e+02   7.1001559e+01   2.5487925e+00   2.3401757e+00   2.3186746e+00   1.8170372e+04   1.0000000e+00   3.8365648e-01   1.9794733e-01   1.8685845e-01
   1.0668500e+04   1.1997491e+01   9.6498789e+03   9.3449293e+01   1.7781380e+02   6.6210829e+01   2.5009770e+00   2.3313783e+00   2.2604424e+00   1.8170793e+04   1.0000000e+00   3.0941456e-01   2.0311322e-01   1.7840715e-01
   1.0669000e+04   1.2000642e+01   9.6498789e+03   9.3806638e+01   1.7785757e+02   6.1566136e+01   2.5140908e+00   2.3194858e+00   2.1956682e+00   1.8171214e+04   1.0000000e+00   2.6359888e-01   2.1008844e-01   1.6661206e-01
   1.0669500e+04   1.2001642e+01   9.6498789e+03   9.4175234e+01   1.7737395e+02   5.8664313e+01   2.5069675e+00   2.3086552e+00   2.1361531e+00   1.8171635e+04   1.0000000e+00   2.5452304e-01   2.1645673e-01   1.5659162e-01
   1.0670000e+04   1.2005850e+01   9.6498789e+03   9.4506350e+01   1.7648003e+02   5.8068863e+01   2.4646979e+00   2.3013417e+00   2.0953954e+00   1.8172056e+04   1.0000000e+00   2.8131488e-01   2.2078812e-01   1.5123533e-01
   1.0670500e+04   1.2013133e+01   9.6498789e+03   9.4786218e+01   1.7556937e+02   5.9734835e+01   2.3346555e+00   2.2990000e+00   2.0585152e+00   1.8172476e+04   1.0000000e+00   3.3780976e-01   2.2224170e-01   1.5254262e-01
   1.0671000e+04   1.2017283e+01   9.6498789e+03   9.5029439e+01   1.7509095e+02   6.3282982e+01   2.2882973e+00   2.2996414e+00   2.0188493e+00   1.8172898e+04   1.0000000e+00   4.0410224e-01   2.2196702e-01   1.5777816e-01
   1.0671500e+04   1.2012226e+01   9.6498789e+03   9.5256062e+01   1.7493177e+02   6.7458698e+01   2.7103759e+00   2.3006574e+00   1.9773395e+00   1.8173319e+04   1.0000000e+00   4.4470992e-01   2.2147139e-01   1.6332880e-01
   1.0672000e+04   1.2006434e+01   9.6498789e+03   9.5471953e+01   1.7508123e+02   6.9997624e+01   3.2127659e+00   2.2989801e+00   1.9376834e+00   1.8173740e+04   1.0000000e+00   4.2946256e-01   2.2251962e-01   1.6458797e-01
   1.0672500e+04   1.2011416e+01   9.6498789e+03   9.5662455e+01   1.7548029e+02   6.9010186e+01   3.1502099e+00   2.2924868e+00   1.8990134e+00   1.8174161e+04   1.0000000e+00   3.6353792e-01   2.2632478e-01   1.5800731e-01
   1.0673000e+04   1.2014358e+01   9.6498789e+03   9.5804385e+01   1.7616783e+02   6.4862816e+01   2.6384277e+00   2.2815400e+00   1.8595285e+00   1.8174582e+04   1.0000000e+00   2.9218272e-01   2.3266939e-01   1.4372796e-01
   1.0673500e+04   1.2016566e+01   9.6498789e+03   9.5880995e+01   1.7648433e+02   6.0427178e+01   2.2950918e+00   2.2700707e+00   1.8148240e+00   1.8175003e+04   1.0000000e+00   2.6609776e-01   2.3928913e-01   1.2751611e-01
   1.0674000e+04   1.2016717e+01   9.6498789e+03   9.5892548e+01   1.7570123e+02   5.8850932e+01   2.1597985e+00   2.2618432e+00   1.7811184e+00   1.8175424e+04   1.0000000e+00   3.0011632e-01   2.4402148e-01   1.1515438e-01
   1.0674500e+04   1.2021133e+01   9.6498789e+03   9.5851667e+01   1.7435196e+02   6.0999355e+01   2.0861364e+00   2.2607525e+00   1.7773178e+00   1.8175845e+04   1.0000000e+00   3.6275888e-01   2.4463234e-01   1.1278795e-01
