~Version                                                                        
 VERS.                2.0 :   CWLS Log ASCII Standard -VERSION 2.0              
 WRAP.                 NO :   One line per depth step                           
~Well Information Block                                                         
#MNEM.UNIT       Data                        Description of Mnemonic            
#----.----      -------------------------- : ------------------------------     
STRT.M           9775.000000               : Start Depth                        
STOP.M           16350.000000              : End Depth                          
STEP.M           0.500000                  : Depth Increment                    
NULL.             -999.250000              : NULL Value                         
COMP.                                      : Company                            
WELL.         6707101_NORWAY               : Well Name                          
UWI .                                      : Unique Well ID                     
~Parameter Information Block                                                    
#----.----      -------------------------- : -----------------------------      
DREF.                  KB                 : Depth Reference                     
EREF.M                                     : Elevation of Depth Reference       
~Tops                                                                           
#TOPS NAME   .        DEPTH:                                                    
~Curve Information Block                                                        
#MNEM.UNIT        API CODE                   Curve Description                  
#----.----      LG--CV-CL--M               : -----------------                  
 depth.F                         : depth index                                  
 CALI.IN                         :   14  CALI                                   
 DBML.F                          :   water depth = 4180 ft.                     
 DT.US/F                         :   13  DT                                     
 DTS.USEC/FT                     :   Shear sonic from D. Neff's IPT project     
 GR.GAPI                         :   12  GR                                     
 RDEEP.OHMM                      :   5   RDEEP                                  
 RHOB.G/C3                       :   10  RHOB                                   
 RO.OHMM                         :   Rt for water saturated formation           
 SALW.PPM                        :   Curve replaced from 7250.89 to 16349.56    
 SW.V/V                          :   IFC(SW_NOCLIP>.85,1,SW)                    
 VSH.V/V                         :   Limited volume of shale                    
 phit.V/V                        : total porosity                               
 xsh.V/V                         : total shale fraction                         
~Asc Depth                                                                      
# ...
   1.1521000e+04   1.1948358e+01   9.6498789e+03   8.8036539e+01   1.5377869e+02   4.8136963e+01   2.3196014e+00   2.3028584e+00   2.2014404e+00   1.8627451e+04   1.0000000e+00   6.5693960e-02   2.1767088e-01   7.9618538e-02
   1.1521500e+04   1.1951851e+01   9.6498789e+03   8.8087104e+01   1.5489005e+02   4.5924399e+01   2.3367618e+00   2.3027515e+00   2.2185629e+00   1.8627451e+04   1.0000000e+00   7.0088160e-02   2.1775252e-01   8.0320786e-02
   1.1522000e+04   1.1957209e+01   9.6498789e+03   8.8375049e+01   1.5679119e+02   4.5035411e+01   2.3263236e+00   2.3082717e+00   2.2108968e+00   1.8627451e+04   1.0000000e+00   1.0131232e-01   2.1470866e-01   9.3647779e-02
   1.1522500e+04   1.1958358e+01   9.6498789e+03   8.8853566e+01   1.5930928e+02   4.5440662e+01   2.3483587e+00   2.3161733e+00   2.1405588e+00   1.8627451e+04   1.0000000e+00   1.6251706e-01   2.1038350e-01   1.1404208e-01
   1.1523000e+04   1.1965702e+01   9.6498789e+03   8.9451644e+01   1.6148657e+02   4.7775578e+01   2.5242047e+00   2.3227045e+00   2.0335766e+00   1.8627451e+04   1.0000000e+00   2.3492304e-01   2.0689899e-01   1.3468499e-01
   1.1523500e+04   1.1970642e+01   9.6498789e+03   9.0090240e+01   1.6313948e+02   5.2194426e+01   2.6743712e+00   2.3256304e+00   1.9420127e+00   1.8627451e+04   1.0000000e+00   2.8314210e-01   2.0550058e-01   1.5073390e-01
   1.1524000e+04   1.1965866e+01   9.6498789e+03   9.0704929e+01   1.6414478e+02   5.7374285e+01   2.5453064e+00   2.3228392e+00   1.9079163e+00   1.8627451e+04   1.0000000e+00   2.8182966e-01   2.0736458e-01   1.5758991e-01
   1.1524500e+04   1.1963000e+01   9.6498789e+03   9.1266476e+01   1.6508744e+02   6.0872521e+01   2.2507265e+00   2.3163832e+00   1.9293168e+00   1.8627451e+04   1.0000000e+00   2.3870846e-01   2.1130103e-01   1.5776704e-01
   1.1525000e+04   1.1960433e+01   9.6498789e+03   9.1774008e+01   1.6789534e+02   6.0911905e+01   2.0545786e+00   2.3087363e+00   1.9677093e+00   1.8627451e+04   1.0000000e+00   1.8969810e-01   2.1589395e-01   1.5506508e-01
   1.1525500e+04   1.1962209e+01   9.6498789e+03   9.2233367e+01   1.7212022e+02   5.7970613e+01   2.0656659e+00   2.3040000e+00   1.9820134e+00   1.8627451e+04   1.0000000e+00   1.7314328e-01   2.1880322e-01   1.5609021e-01
   1.1526000e+04   1.1963358e+01   9.6498789e+03   9.2638002e+01   1.7498168e+02   5.4541596e+01   2.1556432e+00   2.3058233e+00   1.9538683e+00   1.8627451e+04   1.0000000e+00   2.0958260e-01   2.1794403e-01   1.6660366e-01
   1.1526500e+04   1.1964284e+01   9.6498789e+03   9.2969638e+01   1.7619562e+02   5.3393403e+01   2.4093298e+00   2.3153101e+00   1.8930098e+00   1.8627451e+04   1.0000000e+00   2.9462926e-01   2.1268127e-01   1.8815955e-01
   1.1527000e+04   1.1975911e+01   9.6498789e+03   9.3206643e+01   1.7620686e+02   5.6032740e+01   2.9751739e+00   2.3294315e+00   1.8231665e+00   1.8627451e+04   1.0000000e+00   3.9950096e-01   2.0473584e-01   2.1557900e-01
   1.1527500e+04   1.1980075e+01   9.6498789e+03   9.3336443e+01   1.7478422e+02   6.2144353e+01   3.5791523e+00   2.3420303e+00   1.7731698e+00   1.8627451e+04   1.0000000e+00   4.7897520e-01   1.9761298e-01   2.3861384e-01
   1.1528000e+04   1.1977075e+01   9.6498789e+03   9.3367231e+01   1.7246492e+02   6.9645854e+01   3.5354607e+00   2.3480000e+00   1.7728062e+00   1.8627451e+04   1.0000000e+00   4.9259390e-01   1.9422454e-01   2.4897256e-01
   1.1528500e+04   1.1971507e+01   9.6498789e+03   9.3333714e+01   1.7014787e+02   7.5343419e+01   2.7762622e+00   2.3452907e+00   1.8170468e+00   1.8627451e+04   1.0000000e+00   4.3348880e-01   1.9575353e-01   2.4391340e-01
   1.1529000e+04   1.1966433e+01   9.6498789e+03   9.3297941e+01   1.7121776e+02   7.6429168e+01   2.1398466e+00   2.3343651e+00   1.8831962e+00   1.8627451e+04   1.0000000e+00   3.3870656e-01   2.0196633e-01   2.2545295e-01
   1.1529500e+04   1.1963075e+01   9.6498789e+03   9.3321321e+01   1.7549139e+02   7.2388108e+01   1.9322466e+00   2.3215406e+00   1.9176210e+00   1.8627451e+04   1.0000000e+00   2.6409200e-01   2.0929084e-01   2.0511574e-01
   1.1530000e+04   1.1962000e+01   9.6498789e+03   9.3432241e+01   1.7921245e+02   6.5711376e+01   1.9998311e+00   2.3112186e+00   1.8897398e+00   1.8627451e+04   1.0000000e+00   2.4452540e-01   2.1522929e-01   1.9055358e-01
   1.1530500e+04   1.1957507e+01   9.6498789e+03   9.3607373e+01   1.8181632e+02   6.0284126e+01   2.1670345e+00   2.3073054e+00   1.8238426e+00   1.8627451e+04   1.0000000e+00   2.7679148e-01   2.1754191e-01   1.8759791e-01
   1.1531000e+04   1.1955000e+01   9.6498789e+03   9.3773291e+01   1.8213243e+02   5.8686968e+01   2.3098288e+00   2.3105128e+00   1.7718205e+00   1.8627451e+04   1.0000000e+00   3.3315726e-01   2.1578967e-01   1.9601888e-01
   1.1531500e+04   1.1958851e+01   9.6498789e+03   9.3826299e+01   1.8003248e+02   6.0851632e+01   2.3145292e+00   2.3189050e+00   1.7520163e+00   1.8627451e+04   1.0000000e+00   3.8474370e-01   2.1102979e-01   2.1072457e-01
   1.1532000e+04   1.1973194e+01   9.6498789e+03   9.3665955e+01   1.7724125e+02   6.4879129e+01   2.2674183e+00   2.3273197e+00   1.7626987e+00   1.8627451e+04   1.0000000e+00   4.1269568e-01   2.0615789e-01   2.2132429e-01
   1.1532500e+04   1.1978716e+01   9.6498789e+03   9.3224527e+01   1.7390513e+02   6.8637402e+01   2.3112958e+00   2.3330198e+00   1.8040945e+00   1.8627451e+04   1.0000000e+00   4.0597146e-01   2.0270132e-01   2.2197719e-01
   1.1533000e+04   1.1965164e+01   9.6498789e+03   9.2482525e+01   1.7098198e+02   7.0666347e+01   2.3153220e+00   2.3350000e+00   1.8888129e+00   1.8627451e+04   1.0000000e+00   3.5922930e-01   2.0122681e-01   2.1078035e-01
   1.1533500e+04   1.1957358e+01   9.6498789e+03   9.1483128e+01   1.6862498e+02   7.0141370e+01   2.1247483e+00   2.3346428e+00   2.0226402e+00   1.8627451e+04   1.0000000e+00   2.8328880e-01   2.0097346e-01   1.9112386e-01
   1.1534000e+04   1.1965985e+01   9.6498789e+03   9.0329592e+01   1.6690482e+02   6.6777510e+01   1.9443055e+00   2.3350972e+00   2.1854567e+00   1.8627451e+04   1.0000000e+00   2.1218898e-01   2.0019819e-01   1.7031907e-01
   1.1534500e+04   1.1969716e+01   9.6498789e+03   8.9171155e+01   1.6579404e+02   6.1396481e+01   2.0250066e+00   2.3407442e+00   2.3224100e+00   1.8627451e+04   1.0000000e+00   1.8564174e-01   1.9646444e-01   1.5804888e-01
   1.1535000e+04   1.1981194e+01   9.6498789e+03   8.8174619e+01   1.6484817e+02   5.6338831e+01   2.3554104e+00   2.3531295e+00   2.3808525e+00   1.8627451e+04   1.0000000e+00   2.2140202e-01   1.8895229e-01   1.5939331e-01
   1.1535500e+04   1.1988642e+01   9.6498789e+03   8.7486868e+01   1.6418050e+02   5.4387215e+01   3.0646376e+00   2.3692670e+00   2.3526040e+00   1.8627451e+04   1.0000000e+00   3.0327846e-01   1.7942425e-01   1.7199517e-01
   1.1536000e+04   1.1978089e+01   9.6498789e+03   8.7188747e+01   1.6410092e+02   5.6857934e+01   4.0624835e+00   2.3838029e+00   2.2916591e+00   1.8627451e+04   1.0000000e+00   3.9072612e-01   1.7097653e-01   1.8896880e-01
   1.1536500e+04   1.1976493e+01   9.6498789e+03   8.7259796e+01   1.6443869e+02   6.2666516e+01   4.3441659e+00   2.3918178e+00   2.2426295e+00   1.8627451e+04   1.0000000e+00   4.3908384e-01   1.6641907e-01   2.0252832e-01
   1.1537000e+04   1.1986702e+01   9.6498789e+03   8.7575690e+01   1.6446076e+02   6.8928846e+01   3.5453189e+00   2.3888241e+00   2.2224731e+00   1.8627451e+04   1.0000000e+00   4.2135334e-01   1.6826920e-01   2.0364660e-01
   1.1537500e+04   1.1971104e+01   9.6498789e+03   8.7952321e+01   1.6410452e+02   7.2443285e+01   2.6712884e+00   2.3761811e+00   2.2502422e+00   1.8627451e+04   1.0000000e+00   3.4466482e-01   1.7566731e-01   1.9100862e-01
   1.1538000e+04   1.1954224e+01   9.6498789e+03   8.8217115e+01   1.6359410e+02   7.1262990e+01   2.1846028e+00   2.3596094e+00   2.3009020e+00   1.8627451e+04   1.0000000e+00   2.4873048e-01   1.8526360e-01   1.7023691e-01
   1.1538500e+04   1.1951642e+01   9.6498789e+03   8.8274260e+01   1.6295756e+02   6.5839999e+01   2.1199237e+00   2.3446790e+00   2.3221030e+00   1.8627451e+04   1.0000000e+00   1.8063386e-01   1.9383135e-01   1.4826371e-01
