~Version                                                                        
 VERS.                2.0 :   CWLS Log ASCII Standard -VERSION 2.0              
 WRAP.                 NO :   One line per depth step                           
~Well Information Block                                                         
#MNEM.UNIT       Data                        Description of Mnemonic            
#----.----      -------------------------- : ------------------------------     
STRT.M           9775.000000               : Start Depth                        
STOP.M           16350.000000              : End Depth                          
STEP.M           0.500000                  : Depth Increment                    
NULL.             -999.250000              : NULL Value                         
COMP.                                      : Company                            
WELL.         6707101_NORWAY               : Well Name                          
UWI .                                      : Unique Well ID                     
~Parameter Information Block                                                    
#----.----      -------------------------- : -----------------------------      
DREF.                  KB                 : Depth Reference                     
EREF.M                                     : Elevation of Depth Reference       
~Tops                                                                           
#TOPS NAME   .        DEPTH:                                                    
~Curve Information Block                                                        
#MNEM.UNIT        API CODE                   Curve Description                  
#----.----      LG--CV-CL--M               : -----------------                  
 depth.F                         : depth index                                  
 CALI.IN                         :   14  CALI                                   
 DBML.F                          :   water depth = 4180 ft.                     
 DT.US/F                         :   13  DT                                     
 DTS.USEC/FT                     :   Shear sonic from D. Neff's IPT project     
 GR.GAPI                         :   12  GR                                     
 RDEEP.OHMM                      :   5   RDEEP                                  
 RHOB.G/C3                       :   10  RHOB                                   
 RO.OHMM                         :   Rt for water saturated formation           
 SALW.PPM                        :   Curve replaced from 7250.89 to 16349.56    
 SW.V/V                          :   IFC(SW_NOCLIP>.85,1,SW)                    
 VSH.V/V                         :   Limited volume of shale                    
 phit.V/V                        : total porosity                               
 xsh.V/V                         : total shale fraction                         
~Asc Depth                                                                      
# ...
   1.6327000e+04   8.3790704e+00   1.2061700e+04   7.7588000e+01   1.5370230e+02   1.0297273e+02   3.6137144e+00   2.5799284e+00   5.4999864e+00   1.9091012e+04   1.0000000e+00   8.3960560e-01   5.3903765e-02   3.4909656e-01
   1.6327500e+04   8.3799296e+00   1.2062200e+04   7.7588000e+01   1.5370230e+02   1.0279029e+02   3.6040008e+00   2.5829284e+00   5.9707269e+00   1.9091602e+04   1.0000000e+00   8.3716384e-01   5.2201310e-02   3.5357333e-01
   1.6328000e+04   8.3803568e+00   1.2062700e+04   7.7588000e+01   1.5370230e+02   1.0308319e+02   3.5990000e+00   2.5872140e+00   6.3583275e+00   1.9092192e+04   1.0000000e+00   8.4107376e-01   4.9769320e-02   3.5996731e-01
   1.6328500e+04   8.3774272e+00   1.2063200e+04   7.7588000e+01   1.5370230e+02   1.0389494e+02   3.6214980e+00   2.5915712e+00   6.5369856e+00   1.9092783e+04   1.0000000e+00   8.5192592e-01   4.7296474e-02   3.6645962e-01
   1.6329000e+04   8.3760000e+00   1.2063700e+04   7.7588000e+01   1.5370230e+02   1.0475924e+02   3.6539268e+00   2.5949284e+00   6.3761485e+00   1.9093374e+04   1.0000000e+00   8.6348224e-01   4.5390878e-02   3.7145249e-01
   1.6329500e+04   8.3792160e+00   1.2064200e+04   7.7588000e+01   1.5370230e+02   1.0503729e+02   3.6547152e+00   2.5966428e+00   5.9023966e+00   1.9093963e+04   1.0000000e+00   8.6717136e-01   4.4417460e-02   3.7399319e-01
   1.6330000e+04   8.3816432e+00   1.2064700e+04   7.7293598e+01   1.5370230e+02   1.0454062e+02   3.6939960e+00   2.5957144e+00   5.3986618e+00   1.9094553e+04   1.0000000e+00   8.6053936e-01   4.4943839e-02   3.7259619e-01
   1.6330500e+04   8.3813568e+00   1.2065200e+04   7.5643204e+01   1.5370230e+02   1.0368719e+02   3.7781376e+00   2.5917860e+00   5.0261614e+00   1.9095144e+04   1.0000000e+00   8.4918160e-01   4.7172618e-02   3.6672529e-01
   1.6331000e+04   8.3816432e+00   1.2065700e+04   7.1151112e+01   1.5370230e+02   1.0295297e+02   3.7287216e+00   2.5867860e+00   4.7694242e+00   1.9095735e+04   1.0000000e+00   8.3936848e-01   5.0009224e-02   3.5924652e-01
   1.6331500e+04   8.3858592e+00   1.2066200e+04   6.2799776e+01   1.5370230e+02   1.0238717e+02   3.6720724e+00   2.5824288e+00   4.6787938e+00   1.9096325e+04   1.0000000e+00   8.3179760e-01   5.2480852e-02   3.5271868e-01
   1.6332000e+04   8.3886432e+00   1.2066700e+04   5.0791256e+01   1.5370230e+02   1.0177061e+02   3.7495640e+00   2.5790716e+00   4.7301237e+00   1.9096916e+04   1.0000000e+00   8.2357552e-01   5.4384971e-02   3.4768066e-01
   1.6332500e+04   8.3915728e+00   1.2067200e+04   3.6715903e+01   1.5370230e+02   1.0110968e+02   3.8538520e+00   2.5773572e+00   4.8213101e+00   1.9097506e+04   1.0000000e+00   8.1480416e-01   5.5357051e-02   3.4509977e-01
   1.6333000e+04   8.3981456e+00   1.2067700e+04   2.3019898e+01   1.5370230e+02   1.0072266e+02   3.8377900e+00   2.5776428e+00   5.0035797e+00   1.9098096e+04   1.0000000e+00   8.0964176e-01   5.5194550e-02   3.4551435e-01
   1.6333500e+04   8.3971408e+00   1.2068200e+04   1.1982133e+01   1.5370230e+02   1.0088034e+02   3.6477288e+00   2.5786428e+00   5.1948149e+00   1.9098687e+04   1.0000000e+00   8.1171600e-01   5.4626772e-02   3.4699876e-01
   1.6334000e+04   8.3904976e+00   1.2068700e+04   4.8071116e+00   1.5370230e+02   1.0160252e+02   3.4882204e+00   2.5809284e+00   5.2945211e+00   1.9099278e+04   1.0000000e+00   8.2134704e-01   5.3329641e-02   3.5040689e-01
   1.6334500e+04   8.3873568e+00   1.2069200e+04   1.2838464e+00   1.5370230e+02   1.0285849e+02   3.4557852e+00   2.5832856e+00   5.2835038e+00   1.9099868e+04   1.0000000e+00   8.3811376e-01   5.1991825e-02   3.5391977e-01
   1.6335000e+04   8.3895728e+00   1.2069700e+04   1.6359760e-01   1.5370230e+02   1.0463617e+02   3.4300740e+00   2.5846428e+00   5.1634458e+00   1.9100459e+04   1.0000000e+00   8.6185184e-01   5.1221317e-02   3.5593552e-01
   1.6335500e+04   8.3935728e+00   1.2070200e+04   0.0000000e+00   1.5370230e+02   1.0665667e+02   3.3805744e+00   2.5850000e+00   4.9548189e+00   1.9101049e+04   1.0000000e+00   8.8875936e-01   5.1018164e-02   3.5645597e-01
   1.6336000e+04   8.3950000e+00   1.2070700e+04   0.0000000e+00   1.5370230e+02   1.0833556e+02   3.3369308e+00   2.5843572e+00   4.7901930e+00   1.9101639e+04   1.0000000e+00   9.1110672e-01   5.1382380e-02   3.5548168e-01
   1.6336500e+04   8.3937136e+00   1.2071200e+04   0.0000000e+00   1.5370230e+02   1.0913548e+02   3.2812180e+00   2.5827144e+00   4.7887301e+00   1.9102229e+04   1.0000000e+00   9.2176624e-01   5.2313944e-02   3.5301192e-01
   1.6337000e+04   8.3949296e+00   1.2071700e+04   0.0000000e+00   1.5370230e+02   1.0883225e+02   3.1590088e+00   2.5813572e+00   4.9337789e+00   1.9102820e+04   1.0000000e+00   9.1775392e-01   5.3083450e-02   3.5096842e-01
   1.6337500e+04   8.3921408e+00   1.2072200e+04   0.0000000e+00   1.5370230e+02   1.0763537e+02   3.0583612e+00   2.5816428e+00   5.1470064e+00   1.9103411e+04   1.0000000e+00   9.0179328e-01   5.2920933e-02   3.5138233e-01
   1.6338000e+04   8.3932160e+00   1.2072700e+04   0.0000000e+00   1.5370230e+02   1.0617894e+02   3.1352052e+00   2.5832856e+00   5.3847478e+00   1.9104000e+04   1.0000000e+00   8.8238624e-01   5.1988411e-02   3.5382586e-01
   1.6338500e+04   8.3975728e+00   1.2073200e+04   0.0000000e+00   1.5370230e+02   1.0519240e+02   3.3385584e+00   2.5852856e+00   5.4895166e+00   1.9104592e+04   1.0000000e+00   8.6926096e-01   5.0853189e-02   3.5680192e-01
   1.6339000e+04   8.4035024e+00   1.2073700e+04   0.0000000e+00   1.5370230e+02   1.0508242e+02   3.4026444e+00   2.5872856e+00   5.3691520e+00   1.9105182e+04   1.0000000e+00   8.6779392e-01   4.9717918e-02   3.5977611e-01
   1.6339500e+04   8.4040704e+00   1.2074200e+04   0.0000000e+00   1.5370230e+02   1.0575738e+02   3.2869380e+00   2.5880000e+00   5.1595768e+00   1.9105772e+04   1.0000000e+00   8.7674704e-01   4.9312072e-02   3.6082930e-01
   1.6340000e+04   8.3997840e+00   1.2074700e+04   0.0000000e+00   1.5370230e+02   1.0682329e+02   3.1489356e+00   2.5867144e+00   4.9503862e+00   1.9106363e+04   1.0000000e+00   8.9094096e-01   5.0041038e-02   3.5889595e-01
   1.6340500e+04   8.3902816e+00   1.2075200e+04   0.0000000e+00   1.5370230e+02   1.0796001e+02   3.1069284e+00   2.5847144e+00   4.8027606e+00   1.9106954e+04   1.0000000e+00   9.0611232e-01   5.1175320e-02   3.5589446e-01
   1.6341000e+04   8.3872864e+00   1.2075700e+04   0.0000000e+00   1.5370230e+02   1.0900359e+02   3.1028576e+00   2.5827144e+00   4.7428899e+00   1.9107543e+04   1.0000000e+00   9.2005456e-01   5.2309557e-02   3.5289136e-01
   1.6341500e+04   8.3860704e+00   1.2076200e+04   0.0000000e+00   1.5370230e+02   1.0969647e+02   3.1276404e+00   2.5813572e+00   4.8254710e+00   1.9108135e+04   1.0000000e+00   9.2930240e-01   5.3079069e-02   3.5084829e-01
   1.6342000e+04   8.3824272e+00   1.2076700e+04   0.0000000e+00   1.5370230e+02   1.0973616e+02   3.1725688e+00   2.5810000e+00   4.9907534e+00   1.9108725e+04   1.0000000e+00   9.2980608e-01   5.3281234e-02   3.5030063e-01
   1.6342500e+04   8.3810000e+00   1.2077200e+04   0.0000000e+00   1.5370230e+02   1.0916804e+02   3.2327104e+00   2.5822856e+00   5.3092147e+00   1.9109315e+04   1.0000000e+00   9.2220368e-01   5.2551374e-02   3.5221004e-01
   1.6343000e+04   8.3861456e+00   1.2077700e+04   0.0000000e+00   1.5370230e+02   1.0832784e+02   3.3193516e+00   2.5842856e+00   5.6731899e+00   1.9109905e+04   1.0000000e+00   9.1101024e-01   5.1416167e-02   3.5518639e-01
   1.6343500e+04   8.3909296e+00   1.2078200e+04   0.0000000e+00   1.5370230e+02   1.0744598e+02   3.4754892e+00   2.5875712e+00   6.1215090e+00   1.9110496e+04   1.0000000e+00   8.9927456e-01   4.9551458e-02   3.6008061e-01
   1.6344000e+04   8.3971456e+00   1.2078700e+04   0.0000000e+00   1.5370230e+02   1.0657983e+02   3.7589808e+00   2.5909284e+00   6.5838432e+00   1.9111086e+04   1.0000000e+00   8.8770320e-01   4.7645984e-02   3.6507658e-01
   1.6344500e+04   8.4032160e+00   1.2079200e+04   0.0000000e+00   1.5370230e+02   1.0590468e+02   3.8552164e+00   2.5945712e+00   6.9466386e+00   1.9111676e+04   1.0000000e+00   8.7871168e-01   4.5578289e-02   3.7049256e-01
