~Version                                                                        
 VERS.                2.0 :   CWLS Log ASCII Standard -VERSION 2.0              
 WRAP.                 NO :   One line per depth step                           
~Well Information Block                                                         
#MNEM.UNIT       Data                        Description of Mnemonic            
#----.----      -------------------------- : ------------------------------     
STRT.M           9775.000000               : Start Depth                        
STOP.M           16350.000000              : End Depth                          
STEP.M           0.500000                  : Depth Increment                    
NULL.             -999.250000              : NULL Value                         
COMP.                                      : Company                            
WELL.         6707101_NORWAY               : Well Name                          
UWI .                                      : Unique Well ID                     
~Parameter Information Block                                                    
#----.----      -------------------------- : -----------------------------      
DREF.                  KB                 : Depth Reference                     
EREF.M                                     : Elevation of Depth Reference       
~Tops                                                                           
#TOPS NAME   .        DEPTH:                                                    
~Curve Information Block                                                        
#MNEM.UNIT        API CODE                   Curve Description                  
#----.----      LG--CV-CL--M               : -----------------                  
 depth.F                         : depth index                                  
 CALI.IN                         :   14  CALI                                   
 DBML.F                          :   water depth = 4180 ft.                     
 DT.US/F                         :   13  DT                                     
 DTS.USEC/FT                     :   Shear sonic from D. Neff's IPT project     
 GR.GAPI                         :   12  GR                                     
 RDEEP.OHMM                      :   5   RDEEP                                  
 RHOB.G/C3                       :   10  RHOB                                   
 RO.OHMM                         :   Rt for water saturated formation           
 SALW.PPM                        :   Curve replaced from 7250.89 to 16349.56    
 SW.V/V                          :   IFC(SW_NOCLIP>.85,1,SW)                    
 VSH.V/V                         :   Limited volume of shale                    
 phit.V/V                        : total porosity                               
 xsh.V/V                         : total shale fraction                         
~Asc Depth                                                                      
# ...
   1.4149000e+04   8.7579964e+00   9.8837002e+03   8.3889586e+01   1.6184878e+02   9.8444688e+01   3.8998880e+00   2.5689083e+00   4.5301440e+00   1.7444590e+04   1.0000000e+00   7.8242996e-01   6.6792206e-02   5.6172120e-01
   1.4149500e+04   8.7700686e+00   9.8842002e+03   8.4945856e+01   1.6528696e+02   9.8787601e+01   3.5629003e+00   2.5680000e+00   4.4365963e+00   1.7444843e+04   1.0000000e+00   7.7863646e-01   6.8039793e-02   5.8807436e-01
   1.4150000e+04   8.7752852e+00   9.8847002e+03   8.5942698e+01   1.6763004e+02   1.0001180e+02   3.2858623e+00   2.5680366e+00   4.3487285e+00   1.7445095e+04   1.0000000e+00   7.8344766e-01   6.8719704e-02   6.1470787e-01
   1.4150500e+04   8.7817834e+00   9.8852002e+03   8.6816302e+01   1.6859026e+02   1.0152740e+02   3.1470377e+00   2.5699634e+00   4.2304855e+00   1.7445347e+04   1.0000000e+00   8.0019460e-01   6.8247312e-02   6.4126844e-01
   1.4151000e+04   8.7952816e+00   9.8857002e+03   8.7576445e+01   1.6795000e+02   1.0218040e+02   3.1288091e+00   2.5728347e+00   4.1216310e+00   1.7445601e+04   1.0000000e+00   8.2035922e-01   6.7164258e-02   6.6647099e-01
   1.4151500e+04   8.8260614e+00   9.8862002e+03   8.8262957e+01   1.6653855e+02   1.0146683e+02   3.1660480e+00   2.5757249e+00   4.1221080e+00   1.7445853e+04   1.0000000e+00   8.2939206e-01   6.6022775e-02   6.8989174e-01
   1.4152000e+04   8.8624910e+00   9.8867002e+03   8.8894468e+01   1.6577416e+02   1.0010868e+02   3.1515983e+00   2.5777430e+00   4.2582673e+00   1.7446107e+04   1.0000000e+00   8.2008988e-01   6.5340559e-02   7.1060315e-01
   1.4152500e+04   8.8904224e+00   9.8872002e+03   8.9451291e+01   1.6645925e+02   9.9296616e+01   3.0917111e+00   2.5788349e+00   4.4626586e+00   1.7446359e+04   1.0000000e+00   8.0157652e-01   6.4998785e-02   7.2284530e-01
   1.4153000e+04   8.9099242e+00   9.8877002e+03   8.9882023e+01   1.6988071e+02   9.9654901e+01   3.0635598e+00   2.5782019e+00   4.6156340e+00   1.7446611e+04   1.0000000e+00   7.9013032e-01   6.5676103e-02   7.3392409e-01
   1.4153500e+04   8.9057184e+00   9.8882002e+03   9.0128807e+01   1.7340151e+02   1.0095065e+02   3.0169626e+00   2.5757156e+00   4.6447837e+00   1.7446864e+04   1.0000000e+00   7.9470434e-01   6.7269611e-02   7.3697263e-01
   1.4154000e+04   8.8910036e+00   9.8887002e+03   9.0150701e+01   1.7389401e+02   1.0240272e+02   2.9537671e+00   2.5713764e+00   4.5379327e+00   1.7447117e+04   1.0000000e+00   8.1228738e-01   6.9747067e-02   7.3077730e-01
   1.4154500e+04   8.8827870e+00   9.8892002e+03   8.9944186e+01   1.7261365e+02   1.0324140e+02   2.9288139e+00   2.5665597e+00   4.3487107e+00   1.7447370e+04   1.0000000e+00   8.3210940e-01   7.2326036e-02   7.1741095e-01
   1.4155000e+04   8.8848556e+00   9.8897002e+03   8.9548859e+01   1.7080767e+02   1.0301174e+02   2.9610759e+00   2.5617434e+00   4.1426313e+00   1.7447623e+04   1.0000000e+00   8.4346246e-01   7.4766883e-02   6.9881534e-01
   1.4155500e+04   8.9004946e+00   9.8902002e+03   8.9043327e+01   1.6946977e+02   1.0192015e+02   3.0927100e+00   2.5569268e+00   3.9926093e+00   1.7447875e+04   1.0000000e+00   8.4034512e-01   7.7129756e-02   6.7725640e-01
   1.4156000e+04   8.9208520e+00   9.8907002e+03   8.8527451e+01   1.6956505e+02   1.0073896e+02   3.2666593e+00   2.5532662e+00   3.9036328e+00   1.7448128e+04   1.0000000e+00   8.2550468e-01   7.8832816e-02   6.5735819e-01
   1.4156500e+04   8.9556318e+00   9.8912002e+03   8.8089262e+01   1.7036250e+02   1.0023982e+02   3.3870847e+00   2.5503763e+00   3.8266848e+00   1.7448381e+04   1.0000000e+00   8.0923248e-01   8.0157452e-02   6.4089545e-01
   1.4157000e+04   9.0082708e+00   9.8917002e+03   8.7768098e+01   1.7094328e+02   1.0073484e+02   3.3931554e+00   2.5490000e+00   3.7514187e+00   1.7448634e+04   1.0000000e+00   8.0225776e-01   8.0709038e-02   6.3005147e-01
   1.4157500e+04   9.0200036e+00   9.8922002e+03   8.7542427e+01   1.7082414e+02   1.0201628e+02   3.3451290e+00   2.5494679e+00   3.6443039e+00   1.7448887e+04   1.0000000e+00   8.0911120e-01   8.0283258e-02   6.2470815e-01
   1.4158000e+04   8.8922634e+00   9.8927002e+03   8.7340759e+01   1.6946949e+02   1.0355170e+02   3.3273918e+00   2.5500000e+00   3.5484989e+00   1.7449138e+04   1.0000000e+00   8.2683034e-01   7.9838358e-02   6.2012039e-01
   1.4158500e+04   8.7642382e+00   9.8932002e+03   8.7046358e+01   1.6720996e+02   1.0466141e+02   3.3544233e+00   2.5488164e+00   3.4850855e+00   1.7449392e+04   1.0000000e+00   8.4830868e-01   8.0301805e-02   6.1038210e-01
   1.4159000e+04   8.7483502e+00   9.8937002e+03   8.6497528e+01   1.6465889e+02   1.0461016e+02   3.4780554e+00   2.5430642e+00   3.4369043e+00   1.7449644e+04   1.0000000e+00   8.6413250e-01   8.3181103e-02   5.8681473e-01
   1.4159500e+04   8.8004116e+00   9.8942002e+03   8.5508624e+01   1.6133171e+02   1.0260647e+02   3.7245085e+00   2.5295773e+00   3.3892556e+00   1.7449898e+04   1.0000000e+00   8.6474440e-01   9.0153457e-02   5.3995376e-01
   1.4160000e+04   8.8593430e+00   9.8947002e+03   8.3918523e+01   1.5661693e+02   9.7757660e+01   3.9788127e+00   2.5077526e+00   3.2924317e+00   1.7450150e+04   1.0000000e+00   8.3959492e-01   1.0148168e-01   4.6584093e-01
   1.4160500e+04   8.9092022e+00   9.8952002e+03   8.1662555e+01   1.5056039e+02   8.9434194e+01   4.1879983e+00   2.4790724e+00   3.1560584e+00   1.7450402e+04   1.0000000e+00   7.7577756e-01   1.1634820e-01   3.6768889e-01
   1.4161000e+04   8.9754802e+00   9.8957002e+03   7.8845687e+01   1.4372747e+02   7.8207683e+01   4.6699064e+00   2.4490925e+00   3.0378053e+00   1.7450655e+04   1.0000000e+00   6.6289810e-01   1.3175591e-01   2.6006301e-01
   1.4161500e+04   9.1154550e+00   9.8962002e+03   7.5760192e+01   1.3681561e+02   6.6612360e+01   6.2697279e+00   2.4238619e+00   3.0094679e+00   1.7450908e+04   1.0000000e+00   5.0820024e-01   1.4449766e-01   1.6095380e-01
   1.4162000e+04   9.4517476e+00   9.8967002e+03   7.2857717e+01   1.3108045e+02   5.8532706e+01   1.0483981e+01   2.4084497e+00   3.0728123e+00   1.7451161e+04   7.4463076e-01   3.4856848e-01   1.3979146e-01   1.3353720e-01
   1.4162500e+04   9.8610400e+00   9.8972002e+03   7.0654669e+01   1.2701327e+02   5.7051088e+01   1.7095746e+01   2.4060094e+00   3.1175737e+00   1.7451414e+04   4.9547858e-01   2.3944290e-01   1.3139084e-01   1.4237406e-01
   1.4163000e+04   9.7366784e+00   9.8977002e+03   6.9570627e+01   1.2538722e+02   6.2424997e+01   1.7333744e+01   2.4163474e+00   3.0327652e+00   1.7451666e+04   4.7972532e-01   2.2232348e-01   1.2592459e-01   1.4812394e-01
   1.4163500e+04   9.1773786e+00   9.8982002e+03   6.9795976e+01   1.2642059e+02   7.2086941e+01   1.0736065e+01   2.4367438e+00   2.8458258e+00   1.7451919e+04   8.2276534e-01   2.9751560e-01   1.2145758e-01   1.5282260e-01
   1.4164000e+04   9.0890868e+00   9.8987002e+03   7.1235679e+01   1.3092367e+02   8.2507958e+01   6.3572368e+00   2.4627503e+00   2.6828064e+00   1.7452172e+04   1.0000000e+00   4.2799866e-01   1.1665168e-01   1.5787777e-01
   1.4164500e+04   8.9697218e+00   9.8992002e+03   7.3505284e+01   1.3711368e+02   9.1069813e+01   5.0957104e+00   2.4916243e+00   2.6337502e+00   1.7452425e+04   1.0000000e+00   5.6682934e-01   1.0462389e-01   2.1283438e-01
   1.4165000e+04   8.7514006e+00   9.8997002e+03   7.6025890e+01   1.4365878e+02   9.6936700e+01   4.7784971e+00   2.5168513e+00   2.7375369e+00   1.7452678e+04   1.0000000e+00   6.8145928e-01   9.1520535e-02   2.9815687e-01
   1.4165500e+04   8.6588700e+00   9.9002002e+03   7.8278660e+01   1.4936237e+02   1.0038645e+02   4.6739965e+00   2.5383761e+00   2.9581706e+00   1.7452929e+04   1.0000000e+00   7.6016178e-01   8.0509673e-02   3.7738499e-01
   1.4166000e+04   8.6178664e+00   9.9007002e+03   7.9910376e+01   1.5290383e+02   1.0208248e+02   4.6192828e+00   2.5545034e+00   3.2658345e+00   1.7453183e+04   1.0000000e+00   8.0611952e-01   7.2297903e-02   4.3818735e-01
   1.4166500e+04   8.5433104e+00   9.9012002e+03   8.0795332e+01   1.5468827e+02   1.0251834e+02   4.6112807e+00   2.5658805e+00   3.6081042e+00   1.7453435e+04   1.0000000e+00   8.2846752e-01   6.6367389e-02   4.7587108e-01
