~Version                                                                        
 VERS.                2.0 :   CWLS Log ASCII Standard -VERSION 2.0              
 WRAP.                 NO :   One line per depth step                           
~Well Information Block                                                         
#MNEM.UNIT       Data                        Description of Mnemonic            
#----.----      -------------------------- : ------------------------------     
STRT.M           9775.000000               : Start Depth                        
STOP.M           16350.000000              : End Depth                          
STEP.M           0.500000                  : Depth Increment                    
NULL.             -999.250000              : NULL Value                         
COMP.                                      : Company                            
WELL.         6707101_NORWAY               : Well Name                          
UWI .                                      : Unique Well ID                     
~Parameter Information Block                                                    
#----.----      -------------------------- : -----------------------------      
DREF.                  KB                 : Depth Reference                     
EREF.M                                     : Elevation of Depth Reference       
~Tops                                                                           
#TOPS NAME   .        DEPTH:                                                    
~Curve Information Block                                                        
#MNEM.UNIT        API CODE                   Curve Description                  
#----.----      LG--CV-CL--M               : -----------------                  
 depth.F                         : depth index                                  
 CALI.IN                         :   14  CALI                                   
 DBML.F                          :   water depth = 4180 ft.                     
 DT.US/F                         :   13  DT                                     
 DTS.USEC/FT                     :   Shear sonic from D. Neff's IPT project     
 GR.GAPI                         :   12  GR                                     
 RDEEP.OHMM                      :   5   RDEEP                                  
 RHOB.G/C3                       :   10  RHOB                                   
 RO.OHMM                         :   Rt for water saturated formation           
 SALW.PPM                        :   Curve replaced from 7250.89 to 16349.56    
 SW.V/V                          :   IFC(SW_NOCLIP>.85,1,SW)                    
 VSH.V/V                         :   Limited volume of shale                    
 phit.V/V                        : total porosity                               
 xsh.V/V                         : total shale fraction                         
~Asc Depth                                                                      
# ...
   1.2835000e+04   9.1396422e+00   9.6498789e+03   9.0231825e+01   1.8252930e+02   9.9188654e+01   3.7583448e+00   2.5360000e+00   4.4152671e+00   1.8339646e+04   1.0000000e+00   8.2589906e-01   8.8099937e-02   5.9890934e-01
   1.2835500e+04   9.1432110e+00   9.6498789e+03   9.0383594e+01   1.8282713e+02   9.9469826e+01   3.5993712e+00   2.5350186e+00   4.3804111e+00   1.8339493e+04   1.0000000e+00   8.2907982e-01   8.8757172e-02   6.0124712e-01
   1.2836000e+04   9.1539908e+00   9.6498789e+03   9.0463967e+01   1.8315797e+02   1.0045131e+02   3.5274627e+00   2.5340194e+00   4.3811605e+00   1.8339338e+04   1.0000000e+00   8.1973030e-01   8.9378328e-02   6.0174214e-01
   1.2836500e+04   9.1609266e+00   9.6498789e+03   9.0456683e+01   1.8328401e+02   1.0156268e+02   3.5824282e+00   2.5349796e+00   4.4406595e+00   1.8339184e+04   1.0000000e+00   8.0655140e-01   8.8828918e-02   6.0313828e-01
   1.2837000e+04   9.1523670e+00   9.6498789e+03   9.0364607e+01   1.8319950e+02   1.0208998e+02   3.7341120e+00   2.5359786e+00   4.4886743e+00   1.8339030e+04   1.0000000e+00   8.0279908e-01   8.8202534e-02   6.0243823e-01
   1.2837500e+04   9.1470000e+00   9.6498789e+03   9.0220649e+01   1.8304030e+02   1.0171679e+02   3.8664462e+00   2.5369776e+00   4.4842863e+00   1.8338877e+04   1.0000000e+00   8.1254768e-01   8.7542540e-02   6.0041797e-01
   1.2838000e+04   9.1437890e+00   9.6498789e+03   9.0081552e+01   1.8285339e+02   1.0083177e+02   3.8950852e+00   2.5370000e+00   4.4429983e+00   1.8338723e+04   1.0000000e+00   8.2611282e-01   8.7441092e-02   5.9697111e-01
   1.2838500e+04   9.1477798e+00   9.6498789e+03   9.0011958e+01   1.8281222e+02   1.0031138e+02   3.8286746e+00   2.5370000e+00   4.4193624e+00   1.8338569e+04   1.0000000e+00   8.3195596e-01   8.7397322e-02   5.9525446e-01
   1.2839000e+04   9.1593486e+00   9.6498789e+03   9.0060006e+01   1.8296860e+02   1.0069401e+02   3.7079982e+00   2.5370000e+00   4.4221514e+00   1.8338415e+04   1.0000000e+00   8.3099450e-01   8.7429460e-02   5.9651943e-01
   1.2839500e+04   9.1691376e+00   9.6498789e+03   9.0233145e+01   1.8334190e+02   1.0160734e+02   3.6234075e+00   2.5360264e+00   4.3856120e+00   1.8338262e+04   1.0000000e+00   8.3459540e-01   8.8096091e-02   5.9941239e-01
   1.2840000e+04   9.1726422e+00   9.6498789e+03   9.0498367e+01   1.8395084e+02   1.0224008e+02   3.5908540e+00   2.5360000e+00   4.3215001e+00   1.8338108e+04   1.0000000e+00   8.4833850e-01   8.8283942e-02   6.0616218e-01
   1.2840500e+04   9.1730000e+00   9.6498789e+03   9.0794623e+01   1.8466673e+02   1.0234360e+02   3.5861127e+00   2.5350282e+00   4.2417791e+00   1.8337954e+04   1.0000000e+00   8.6442566e-01   8.9029845e-02   6.1221152e-01
   1.2841000e+04   9.1723578e+00   9.6498789e+03   9.1055513e+01   1.8539687e+02   1.0250658e+02   3.5948345e+00   2.5350000e+00   4.2104000e+00   1.8337799e+04   1.0000000e+00   8.6970734e-01   8.9216886e-02   6.1888587e-01
   1.2841500e+04   9.1739266e+00   9.6498789e+03   9.1235439e+01   1.8578266e+02   1.0328600e+02   3.5910267e+00   2.5350000e+00   4.2499595e+00   1.8337645e+04   1.0000000e+00   8.5829728e-01   8.9335486e-02   6.2354605e-01
   1.2842000e+04   9.1794954e+00   9.6498789e+03   9.1320244e+01   1.8579448e+02   1.0442648e+02   3.5701670e+00   2.5350000e+00   4.3375044e+00   1.8337492e+04   1.0000000e+00   8.3414684e-01   8.9392093e-02   6.2577136e-01
   1.2842500e+04   9.1787890e+00   9.6498789e+03   9.1321929e+01   1.8571514e+02   1.0508491e+02   3.5521758e+00   2.5359678e+00   4.4612750e+00   1.8337338e+04   1.0000000e+00   8.0718170e-01   8.8844569e-02   6.2742248e-01
   1.2843000e+04   9.1731468e+00   9.6498789e+03   9.1267274e+01   1.8554079e+02   1.0464539e+02   3.5824420e+00   2.5369668e+00   4.5650650e+00   1.8337184e+04   1.0000000e+00   7.8960828e-01   8.8242425e-02   6.2767403e-01
   1.2843500e+04   9.1555872e+00   9.6498789e+03   9.1187650e+01   1.8531614e+02   1.0315419e+02   3.6566136e+00   2.5379658e+00   4.6040844e+00   1.8337030e+04   1.0000000e+00   7.8863210e-01   8.7623868e-02   6.2728104e-01
   1.2844000e+04   9.1071836e+00   9.6498789e+03   9.1109836e+01   1.8508572e+02   1.0120948e+02   3.7232651e+00   2.5380000e+00   4.5597001e+00   1.8336877e+04   1.0000000e+00   8.0248070e-01   8.7554727e-02   6.2538512e-01
   1.2844500e+04   9.0946330e+00   9.6498789e+03   9.1048680e+01   1.8504434e+02   9.9667657e+01   3.7172129e+00   2.5389640e+00   4.5017028e+00   1.8336723e+04   1.0000000e+00   8.2245776e-01   8.6968050e-02   6.2540758e-01
   1.2845000e+04   9.1089908e+00   9.6498789e+03   9.1000467e+01   1.8511359e+02   9.9186652e+01   3.6253152e+00   2.5399630e+00   4.4668753e+00   1.8336569e+04   1.0000000e+00   8.4011098e-01   8.6369893e-02   6.2581591e-01
   1.2845500e+04   9.1223486e+00   9.6498789e+03   9.0945018e+01   1.8477189e+02   9.9857772e+01   3.5536877e+00   2.5419241e+00   4.4828164e+00   1.8336415e+04   1.0000000e+00   8.5068072e-01   8.5220057e-02   6.2757112e-01
   1.2846000e+04   9.1347064e+00   9.6498789e+03   9.0855542e+01   1.8401474e+02   1.0119902e+02   3.5935740e+00   2.5429610e+00   4.5309155e+00   1.8336260e+04   1.0000000e+00   8.5173028e-01   8.4573119e-02   6.2697169e-01
   1.2846500e+04   9.1364312e+00   9.6498789e+03   9.0711642e+01   1.8343997e+02   1.0257428e+02   3.7031125e+00   2.5449201e+00   4.6360117e+00   1.8336107e+04   1.0000000e+00   8.4296516e-01   8.3366151e-02   6.2643555e-01
   1.2847000e+04   9.1305046e+00   9.6498789e+03   9.0508238e+01   1.8311789e+02   1.0353780e+02   3.8141495e+00   2.5459590e+00   4.7396503e+00   1.8335954e+04   1.0000000e+00   8.2819636e-01   8.2643400e-02   6.2290694e-01
   1.2847500e+04   9.1215780e+00   9.6498789e+03   9.0258469e+01   1.8293735e+02   1.0384591e+02   3.8552014e+00   2.5460000e+00   4.8083614e+00   1.8335799e+04   1.0000000e+00   8.1347342e-01   8.2458295e-02   6.1662036e-01
   1.2848000e+04   9.1122202e+00   9.6498789e+03   8.9990168e+01   1.8289880e+02   1.0342483e+02   3.8680931e+00   2.5450430e+00   4.8382624e+00   1.8335645e+04   1.0000000e+00   8.0053672e-01   8.2829487e-02   6.0830820e-01
   1.2848500e+04   9.1019358e+00   9.6498789e+03   8.9740832e+01   1.8282264e+02   1.0246370e+02   3.9115264e+00   2.5430879e+00   4.8289432e+00   1.8335491e+04   1.0000000e+00   7.8762296e-01   8.3781587e-02   5.9893698e-01
   1.2849000e+04   9.0909358e+00   9.6498789e+03   8.9552990e+01   1.8273170e+02   1.0136429e+02   3.9764500e+00   2.5420448e+00   4.8177248e+00   1.8335338e+04   1.0000000e+00   7.7776240e-01   8.4255113e-02   5.9258421e-01
   1.2849500e+04   9.0895688e+00   9.6498789e+03   8.9467979e+01   1.8281482e+02   1.0035149e+02   3.9593608e+00   2.5410458e+00   4.7680561e+00   1.8335184e+04   1.0000000e+00   7.7997338e-01   8.4770018e-02   5.8891196e-01
   1.2850000e+04   9.0993486e+00   9.6498789e+03   8.9510151e+01   1.8311889e+02   9.9377410e+01   3.8276145e+00   2.5400468e+00   4.6515562e+00   1.8335030e+04   1.0000000e+00   7.9827702e-01   8.5366744e-02   5.8845254e-01
   1.2850500e+04   9.1084954e+00   9.6498789e+03   8.9666474e+01   1.8349488e+02   9.8568007e+01   3.7002645e+00   2.5409522e+00   4.5591148e+00   1.8334876e+04   1.0000000e+00   8.2301922e-01   8.4953297e-02   5.9387712e-01
   1.2851000e+04   9.0975138e+00   9.6498789e+03   8.9875009e+01   1.8391880e+02   9.8460639e+01   3.6461619e+00   2.5438537e+00   4.5849494e+00   1.8334722e+04   1.0000000e+00   8.3707338e-01   8.3438261e-02   6.0378464e-01
   1.2851500e+04   9.0957798e+00   9.6498789e+03   9.0043992e+01   1.8420538e+02   9.9460754e+01   3.6284960e+00   2.5478010e+00   4.7834536e+00   1.8334569e+04   1.0000000e+00   8.3039544e-01   8.1303005e-02   6.1434953e-01
   1.2852000e+04   9.0945046e+00   9.6498789e+03   9.0083340e+01   1.8427512e+02   1.0115427e+02   3.6281746e+00   2.5546448e+00   5.2364054e+00   1.8334415e+04   1.0000000e+00   8.0795326e-01   7.7434492e-02   6.2613173e-01
   1.2852500e+04   9.0842936e+00   9.6498789e+03   8.9945986e+01   1.8409803e+02   1.0243869e+02   3.6450789e+00   2.5625860e+00   5.9274968e+00   1.8334260e+04   1.0000000e+00   7.8491380e-01   7.2823357e-02   6.3500330e-01
