~Version                                                                        
 VERS.                2.0 :   CWLS Log ASCII Standard -VERSION 2.0              
 WRAP.                 NO :   One line per depth step                           
~Well Information Block                                                         
#MNEM.UNIT       Data                        Description of Mnemonic            
#----.----      -------------------------- : ------------------------------     
STRT.M           9775.000000               : Start Depth                        
STOP.M           16350.000000              : End Depth                          
STEP.M           0.500000                  : Depth Increment                    
NULL.             -999.250000              : NULL Value                         
COMP.                                      : Company                            
WELL.         6707101_NORWAY               : Well Name                          
UWI .                                      : Unique Well ID                     
~Parameter Information Block                                                    
#----.----      -------------------------- : -----------------------------      
DREF.                  KB                 : Depth Reference                     
EREF.M                                     : Elevation of Depth Reference       
~Tops                                                                           
#TOPS NAME   .        DEPTH:                                                    
~Curve Information Block                                                        
#MNEM.UNIT        API CODE                   Curve Description                  
#----.----      LG--CV-CL--M               : -----------------                  
 depth.F                         : depth index                                  
 CALI.IN                         :   14  CALI                                   
 DBML.F                          :   water depth = 4180 ft.                     
 DT.US/F                         :   13  DT                                     
 DTS.USEC/FT                     :   Shear sonic from D. Neff's IPT project     
 GR.GAPI                         :   12  GR                                     
 RDEEP.OHMM                      :   5   RDEEP                                  
 RHOB.G/C3                       :   10  RHOB                                   
 RO.OHMM                         :   Rt for water saturated formation           
 SALW.PPM                        :   Curve replaced from 7250.89 to 16349.56    
 SW.V/V                          :   IFC(SW_NOCLIP>.85,1,SW)                    
 VSH.V/V                         :   Limited volume of shale                    
 phit.V/V                        : total porosity                               
 xsh.V/V                         : total shale fraction                         
~Asc Depth                                                                      
# ...
   1.0207000e+04   1.2071662e+01   9.6498789e+03   1.0911690e+02   1.8340525e+02   5.4718144e+01   2.8341129e+01   2.1140667e+00   1.7402935e+00   1.7257364e+04   2.4377140e-01   1.9850814e-01   2.4439735e-01   1.5089023e-01
   1.0207500e+04   1.2068283e+01   9.6498789e+03   1.1002871e+02   1.8570612e+02   5.2048753e+01   2.2537287e+01   2.1158283e+00   1.6669245e+00   1.7257024e+04   2.8148868e-01   1.9927290e-01   2.4702467e-01   1.5604286e-01
   1.0208000e+04   1.2075414e+01   9.6498789e+03   1.1044636e+02   1.8722758e+02   5.2409535e+01   1.0822049e+01   2.1298807e+00   1.6530257e+00   1.7256684e+04   4.1643508e-01   2.5753678e-01   2.5278931e-01   1.3890131e-01
   1.0208500e+04   1.2098242e+01   9.6498789e+03   1.1051570e+02   1.8789514e+02   5.5939057e+01   6.5044975e+00   2.1464870e+00   1.6835933e+00   1.7256345e+04   5.1180120e-01   3.3600646e-01   2.5403752e-01   1.3143962e-01
   1.0209000e+04   1.2105793e+01   9.6498789e+03   1.1044494e+02   1.8746962e+02   6.0380716e+01   8.3254972e+00   2.1570369e+00   1.7161688e+00   1.7256005e+04   4.6461160e-01   3.8181022e-01   2.4474361e-01   1.5752047e-01
   1.0209500e+04   1.2088606e+01   9.6498789e+03   1.1040273e+02   1.8669503e+02   6.2777367e+01   1.7317004e+01   2.1579119e+00   1.7193784e+00   1.7255665e+04   3.3045414e-01   3.7152418e-01   2.3287158e-01   1.9718531e-01
   1.0210000e+04   1.2083848e+01   9.6498789e+03   1.1043735e+02   1.8634173e+02   6.2000725e+01   2.2996552e+01   2.1549563e+00   1.6917834e+00   1.7255325e+04   2.6855422e-01   3.2989764e-01   2.2923161e-01   2.1205906e-01
   1.0210500e+04   1.2078945e+01   9.6498789e+03   1.1046934e+02   1.8662686e+02   5.9657073e+01   1.9040180e+01   2.1531014e+00   1.6585449e+00   1.7254985e+04   2.9619828e-01   3.0674256e-01   2.3222620e-01   2.0248296e-01
   1.0211000e+04   1.2074359e+01   9.6498789e+03   1.1035384e+02   1.8796737e+02   5.8607386e+01   1.2363139e+01   2.1601042e+00   1.6498090e+00   1.7254645e+04   3.7051492e-01   3.3357408e-01   2.3518829e-01   1.8763086e-01
   1.0211500e+04   1.2078490e+01   9.6498789e+03   1.0997395e+02   1.8940622e+02   6.0491146e+01   7.9686578e+00   2.1749940e+00   1.6899047e+00   1.7254305e+04   4.6421580e-01   4.0020850e-01   2.3631603e-01   1.7299646e-01
   1.0212000e+04   1.2096394e+01   9.6498789e+03   1.0932172e+02   1.8995819e+02   6.4485737e+01   6.5388291e+00   2.1918650e+00   1.7784980e+00   1.7253966e+04   5.1939652e-01   4.6462394e-01   2.3310429e-01   1.6863280e-01
   1.0212500e+04   1.2125525e+01   9.6498789e+03   1.0854464e+02   1.8956988e+02   6.8020023e+01   7.1434127e+00   2.2008607e+00   1.8716377e+00   1.7253626e+04   5.1078832e-01   4.8503586e-01   2.2793384e-01   1.7068069e-01
   1.0213000e+04   1.2121606e+01   9.6498789e+03   1.0788161e+02   1.8784711e+02   6.8811690e+01   9.5154059e+00   2.2000228e+00   1.9142169e+00   1.7253286e+04   4.5085360e-01   4.5036440e-01   2.2314916e-01   1.7574371e-01
   1.0213500e+04   1.2106586e+01   9.6498789e+03   1.0754826e+02   1.8630155e+02   6.6484818e+01   1.1696806e+01   2.1903037e+00   1.8887224e+00   1.7252946e+04   4.0006062e-01   3.8449850e-01   2.2337308e-01   1.7240423e-01
   1.0214000e+04   1.2110055e+01   9.6498789e+03   1.0763299e+02   1.8641597e+02   6.2583454e+01   1.0915055e+01   2.1784527e+00   1.8213839e+00   1.7252606e+04   4.0575716e-01   3.2347956e-01   2.2920374e-01   1.5820904e-01
   1.0214500e+04   1.2110152e+01   9.6498789e+03   1.0806500e+02   1.8747023e+02   5.9129700e+01   7.3575537e+00   2.1713168e+00   1.7470061e+00   1.7252266e+04   4.9519220e-01   2.8613322e-01   2.3964658e-01   1.3180761e-01
   1.0215000e+04   1.2110566e+01   9.6498789e+03   1.0866574e+02   1.8915969e+02   5.7048861e+01   4.3265422e+00   2.1710000e+00   1.6906901e+00   1.7251927e+04   6.3711350e-01   2.6824664e-01   2.4164422e-01   1.0003388e-01
   1.0215500e+04   1.2104303e+01   9.6498789e+03   1.0925336e+02   1.9045843e+02   5.6025533e+01   3.2472615e+00   2.1756992e+00   1.6615493e+00   1.7251587e+04   7.1405658e-01   2.5789912e-01   2.4130054e-01   9.2485281e-02
   1.0216000e+04   1.2101924e+01   9.6498789e+03   1.0972802e+02   1.9032518e+02   5.5404062e+01   3.3961197e+00   2.1797293e+00   1.6520061e+00   1.7251248e+04   6.9436586e-01   2.4895568e-01   2.4124433e-01   1.0972305e-01
   1.0216500e+04   1.2106848e+01   9.6498789e+03   1.1008955e+02   1.8960138e+02   5.4868256e+01   4.1572690e+00   2.1790750e+00   1.6458178e+00   1.7250909e+04   6.2752532e-01   2.4073294e-01   2.4340128e-01   1.3305567e-01
   1.0217000e+04   1.2113490e+01   9.6498789e+03   1.1040584e+02   1.8878225e+02   5.4392964e+01   4.2032129e+00   2.1725780e+00   1.6369143e+00   1.7250569e+04   6.1674812e-01   2.3450058e-01   2.4839519e-01   1.3233754e-01
   1.0217500e+04   1.2111510e+01   9.6498789e+03   1.1076110e+02   1.8836012e+02   5.4069370e+01   3.3766344e+00   2.1629012e+00   1.6213417e+00   1.7250229e+04   6.9078140e-01   2.3369038e-01   2.5501887e-01   1.0294722e-01
   1.0218000e+04   1.2113490e+01   9.6498789e+03   1.1120281e+02   1.8888439e+02   5.4090297e+01   2.5292911e+00   2.1529748e+00   1.6003609e+00   1.7249889e+04   7.9556566e-01   2.4000846e-01   2.6188719e-01   6.6308179e-02
   1.0218500e+04   1.2116000e+01   9.6498789e+03   1.1172636e+02   1.8987032e+02   5.4489310e+01   2.2334115e+00   2.1439450e+00   1.5779685e+00   1.7249550e+04   8.3704286e-01   2.4878018e-01   2.6843831e-01   4.8509984e-02
   1.0219000e+04   1.2115359e+01   9.6498789e+03   1.1228811e+02   1.9111090e+02   5.4950645e+01   2.5090408e+00   2.1367866e+00   1.5543781e+00   1.7249210e+04   7.8537138e-01   2.5164344e-01   2.7416872e-01   6.1477965e-02
   1.0219500e+04   1.2114359e+01   9.6498789e+03   1.1282331e+02   1.9219821e+02   5.5030659e+01   3.1633538e+00   2.1315994e+00   1.5291519e+00   1.7248870e+04   6.9418216e-01   2.4617638e-01   2.7728632e-01   8.9139724e-02
   1.0220000e+04   1.2113359e+01   9.6498789e+03   1.1326130e+02   1.9276020e+02   5.4694554e+01   3.4994351e+00   2.1266363e+00   1.5062382e+00   1.7248530e+04   6.4867550e-01   2.3954402e-01   2.8027628e-01   1.0337412e-01
   1.0220500e+04   1.2114924e+01   9.6498789e+03   1.1351774e+02   1.9273212e+02   5.4365273e+01   3.4413714e+00   2.1225391e+00   1.4939178e+00   1.7248190e+04   6.5234170e-01   2.3833382e-01   2.8279570e-01   1.0043390e-01
   1.0221000e+04   1.2111510e+01   9.6498789e+03   1.1349199e+02   1.9181399e+02   5.4297942e+01   3.3641608e+00   2.1202846e+00   1.4948277e+00   1.7247850e+04   6.6123528e-01   2.3706822e-01   2.8432861e-01   9.4203031e-02
   1.0221500e+04   1.2113490e+01   9.6498789e+03   1.1308966e+02   1.9062858e+02   5.4110504e+01   3.3537150e+00   2.1234012e+00   1.5181586e+00   1.7247511e+04   6.6701254e-01   2.2660728e-01   2.8308035e-01   9.0834741e-02
   1.0222000e+04   1.2116641e+01   9.6498789e+03   1.1226384e+02   1.8953937e+02   5.3464561e+01   3.2485192e+00   2.1341135e+00   1.5699309e+00   1.7247171e+04   6.8857028e-01   2.1527084e-01   2.7791093e-01   8.6683247e-02
   1.0222500e+04   1.2119566e+01   9.6498789e+03   1.1106139e+02   1.8845208e+02   5.3061547e+01   2.9311571e+00   2.1543792e+00   1.6533896e+00   1.7246831e+04   7.4506768e-01   2.2755016e-01   2.6783078e-01   8.0353013e-02
   1.0223000e+04   1.2114586e+01   9.6498789e+03   1.0963950e+02   1.8726836e+02   5.4203511e+01   2.5938262e+00   2.1828372e+00   1.7727138e+00   1.7246491e+04   8.2236098e-01   2.7427088e-01   2.5354256e-01   8.0457570e-02
   1.0223500e+04   1.2121904e+01   9.6498789e+03   1.0824209e+02   1.8600991e+02   5.7090092e+01   2.7479644e+00   2.2117906e+00   1.9080435e+00   1.7246151e+04   8.3269940e-01   3.2981490e-01   2.3896887e-01   9.9837713e-02
   1.0224000e+04   1.2150449e+01   9.6498789e+03   1.0715254e+02   1.8466402e+02   5.9991677e+01   3.4141376e+00   2.2324467e+00   2.0126452e+00   1.7245811e+04   7.6919208e-01   3.5182216e-01   2.2861808e-01   1.2655292e-01
   1.0224500e+04   1.2133496e+01   9.6498789e+03   1.0662653e+02   1.8394133e+02   6.0723078e+01   4.0212999e+00   2.2392219e+00   2.0537700e+00   1.7245471e+04   7.1070114e-01   3.2498598e-01   2.2539669e-01   1.4199668e-01
