~Version                                                                        
 VERS.                2.0 :   CWLS Log ASCII Standard -VERSION 2.0              
 WRAP.                 NO :   One line per depth step                           
~Well Information Block                                                         
#MNEM.UNIT       Data                        Description of Mnemonic            
#----.----      -------------------------- : ------------------------------     
STRT.M           9775.000000               : Start Depth                        
STOP.M           16350.000000              : End Depth                          
STEP.M           0.500000                  : Depth Increment                    
NULL.             -999.250000              : NULL Value                         
COMP.                                      : Company                            
WELL.         6707101_NORWAY               : Well Name                          
UWI .                                      : Unique Well ID                     
~Parameter Information Block                                                    
#----.----      -------------------------- : -----------------------------      
DREF.                  KB                 : Depth Reference                     
EREF.M                                     : Elevation of Depth Reference       
~Tops                                                                           
#TOPS NAME   .        DEPTH:                                                    
~Curve Information Block                                                        
#MNEM.UNIT        API CODE                   Curve Description                  
#----.----      LG--CV-CL--M               : -----------------                  
 depth.F                         : depth index                                  
 CALI.IN                         :   14  CALI                                   
 DBML.F                          :   water depth = 4180 ft.                     
 DT.US/F                         :   13  DT                                     
 DTS.USEC/FT                     :   Shear sonic from D. Neff's IPT project     
 GR.GAPI                         :   12  GR                                     
 RDEEP.OHMM                      :   5   RDEEP                                  
 RHOB.G/C3                       :   10  RHOB                                   
 RO.OHMM                         :   Rt for water saturated formation           
 SALW.PPM                        :   Curve replaced from 7250.89 to 16349.56    
 SW.V/V                          :   IFC(SW_NOCLIP>.85,1,SW)                    
 VSH.V/V                         :   Limited volume of shale                    
 phit.V/V                        : total porosity                               
 xsh.V/V                         : total shale fraction                         
~Asc Depth                                                                      
# ...
   1.5445000e+04   8.5787860e+00   1.1179700e+04   8.7041313e+01   1.6992899e+02   1.0617621e+02   3.5006002e+00   2.5738324e+00   4.7502767e+00   1.8099683e+04   1.0000000e+00   7.9502848e-01   6.4114486e-02   5.8353586e-01
   1.5445500e+04   8.5744288e+00   1.1180200e+04   8.6965621e+01   1.6951136e+02   1.0519710e+02   3.4559349e+00   2.5739966e+00   4.7306028e+00   1.8099935e+04   1.0000000e+00   8.0119236e-01   6.3970779e-02   5.8190481e-01
   1.5446000e+04   8.5755712e+00   1.1180700e+04   8.6830044e+01   1.6920891e+02   1.0348354e+02   3.4487679e+00   2.5748065e+00   4.7145784e+00   1.8100187e+04   1.0000000e+00   8.0886388e-01   6.3422039e-02   5.7981366e-01
   1.5446500e+04   8.5737860e+00   1.1181200e+04   8.6642481e+01   1.6906480e+02   1.0156857e+02   3.5584785e+00   2.5758425e+00   4.7198353e+00   1.8100441e+04   1.0000000e+00   8.1062864e-01   6.2710961e-02   5.7679853e-01
   1.5447000e+04   8.5739284e+00   1.1181700e+04   8.6434284e+01   1.6890509e+02   1.0001338e+02   3.6983771e+00   2.5767878e+00   4.7764238e+00   1.8100693e+04   1.0000000e+00   8.0544328e-01   6.2037808e-02   5.7314003e-01
   1.5447500e+04   8.5801424e+00   1.1182200e+04   8.6248958e+01   1.6873938e+02   9.9206254e+01   3.6899657e+00   2.5777386e+00   4.8313121e+00   1.8100946e+04   1.0000000e+00   7.9855752e-01   6.1376946e-02   5.7006269e-01
   1.5448000e+04   8.5727152e+00   1.1182700e+04   8.6124355e+01   1.6862188e+02   9.9182446e+01   3.5277150e+00   2.5781017e+00   4.8888747e+00   1.8101199e+04   1.0000000e+00   7.9356452e-01   6.1088935e-02   5.6756141e-01
   1.5448500e+04   8.5695712e+00   1.1183200e+04   8.6078938e+01   1.6861222e+02   9.9620389e+01   3.4255102e+00   2.5786841e+00   4.9630813e+00   1.8101451e+04   1.0000000e+00   7.8869316e-01   6.0728878e-02   5.6734749e-01
   1.5449000e+04   8.5806420e+00   1.1183700e+04   8.6105513e+01   1.6884523e+02   1.0007775e+02   3.4855680e+00   2.5791255e+00   5.0608652e+00   1.8101704e+04   1.0000000e+00   7.8037200e-01   6.0495993e-02   5.6867687e-01
   1.5449500e+04   8.5943564e+00   1.1184200e+04   8.6176360e+01   1.6928051e+02   1.0022577e+02   3.5973973e+00   2.5796458e+00   5.1605446e+00   1.8101957e+04   1.0000000e+00   7.6735084e-01   6.0247582e-02   5.7121671e-01
   1.5450000e+04   8.5990000e+00   1.1184700e+04   8.6255240e+01   1.6949906e+02   1.0001121e+02   3.6526311e+00   2.5801330e+00   5.2317110e+00   1.8102210e+04   1.0000000e+00   7.5162236e-01   6.0023314e-02   5.7390461e-01
   1.5450500e+04   8.5945004e+00   1.1185200e+04   8.6310972e+01   1.6947101e+02   9.9726792e+01   3.6459023e+00   2.5807359e+00   5.2643275e+00   1.8102463e+04   1.0000000e+00   7.3930772e-01   5.9718290e-02   5.7620689e-01
   1.5451000e+04   8.5875004e+00   1.1185700e+04   8.6320750e+01   1.6930202e+02   9.9763293e+01   3.6220289e+00   2.5816726e+00   5.2869057e+00   1.8102715e+04   1.0000000e+00   7.3807836e-01   5.9193959e-02   5.7790094e-01
   1.5451500e+04   8.5856428e+00   1.1186200e+04   8.6266965e+01   1.6889436e+02   1.0019775e+02   3.5779601e+00   2.5825638e+00   5.3177838e+00   1.8102968e+04   1.0000000e+00   7.5058472e-01   5.8653398e-02   5.7795720e-01
   1.5452000e+04   8.5808576e+00   1.1186700e+04   8.6135314e+01   1.6807922e+02   1.0065678e+02   3.5137583e+00   2.5829505e+00   5.6145033e+00   1.8103221e+04   1.0000000e+00   7.6920604e-01   5.8347130e-02   5.7531034e-01
   1.5452500e+04   8.5780000e+00   1.1187200e+04   8.5922246e+01   1.6686002e+02   1.0070160e+02   3.5364554e+00   2.5823638e+00   6.5141341e+00   1.8103474e+04   1.0000000e+00   7.7937828e-01   5.8538727e-02   5.6915662e-01
   1.5453000e+04   8.5767144e+00   1.1187700e+04   8.5643407e+01   1.6531574e+02   1.0031007e+02   3.7375915e+00   2.5813807e+00   8.1673182e+00   1.8103726e+04   1.0000000e+00   7.7097948e-01   5.8912395e-02   5.6080321e-01
   1.5453500e+04   8.5785712e+00   1.1188200e+04   8.5338481e+01   1.6359932e+02   9.9821469e+01   4.0508167e+00   2.5816177e+00   1.0409169e+01   1.8103978e+04   1.0000000e+00   7.4743016e-01   5.8578983e-02   5.5375201e-01
   1.5454000e+04   8.5857852e+00   1.1188700e+04   8.5064192e+01   1.6195616e+02   9.9451429e+01   4.2019433e+00   2.5838435e+00   1.2115825e+01   1.8104232e+04   1.0000000e+00   7.2419404e-01   5.7139543e-02   5.5055888e-01
   1.5454500e+04   8.5954280e+00   1.1189200e+04   8.4876218e+01   1.6094819e+02   9.9041176e+01   4.0188938e+00   2.5886456e+00   1.1875634e+01   1.8104484e+04   1.0000000e+00   7.1641432e-01   5.4295999e-02   5.5342840e-01
   1.5455000e+04   8.5977144e+00   1.1189700e+04   8.4809718e+01   1.6151503e+02   9.8355286e+01   3.8239828e+00   2.5963681e+00   1.0071518e+01   1.8104737e+04   1.0000000e+00   7.2912028e-01   4.9874130e-02   5.6366612e-01
   1.5455500e+04   8.5976428e+00   1.1190200e+04   8.4864252e+01   1.6332356e+02   9.7350412e+01   3.7686907e+00   2.6057615e+00   8.2325224e+00   1.8104990e+04   1.0000000e+00   7.5641964e-01   4.4580351e-02   5.7928328e-01
   1.5456000e+04   8.6018568e+00   1.1190700e+04   8.4999165e+01   1.6566571e+02   9.6226403e+01   3.7370569e+00   2.6143715e+00   7.0418323e+00   1.8105242e+04   1.0000000e+00   7.8771964e-01   3.9780687e-02   5.9555791e-01
   1.5456500e+04   8.5982148e+00   1.1191200e+04   8.5142994e+01   1.6783102e+02   9.5448223e+01   3.5605710e+00   2.6194212e+00   6.4753991e+00   1.8105495e+04   1.0000000e+00   8.1291304e-01   3.7006754e-02   6.0663490e-01
   1.5457000e+04   8.5827868e+00   1.1191700e+04   8.5214816e+01   1.6879987e+02   9.5512573e+01   3.4348733e+00   2.6191873e+00   6.5973135e+00   1.8105748e+04   1.0000000e+00   8.2449252e-01   3.7186411e-02   6.0803209e-01
   1.5457500e+04   8.5702148e+00   1.1192200e+04   8.5152924e+01   1.6852941e+02   9.6498496e+01   3.4475174e+00   2.6142866e+00   7.2787589e+00   1.8106001e+04   1.0000000e+00   8.1952920e-01   3.9928388e-02   5.9915055e-01
   1.5458000e+04   8.5644288e+00   1.1192700e+04   8.4939870e+01   1.6736844e+02   9.7791868e+01   3.6813632e+00   2.6075017e+00   8.5795612e+00   1.8106254e+04   1.0000000e+00   8.0120128e-01   4.3640117e-02   5.8370200e-01
   1.5458500e+04   8.5623572e+00   1.1193200e+04   8.4611752e+01   1.6541963e+02   9.8355568e+01   4.0627717e+00   2.6016118e+00   1.0313217e+01   1.8106506e+04   1.0000000e+00   7.7828704e-01   4.6768681e-02   5.6680844e-01
   1.5459000e+04   8.5748560e+00   1.1193700e+04   8.4253978e+01   1.6318335e+02   9.7588947e+01   4.4560377e+00   2.5981934e+00   1.1981438e+01   1.8106759e+04   1.0000000e+00   7.6035800e-01   4.8477127e-02   5.5300343e-01
   1.5459500e+04   8.5922848e+00   1.1194200e+04   8.3964707e+01   1.6100844e+02   9.5895135e+01   4.5226317e+00   2.5984631e+00   1.2832767e+01   1.8107012e+04   1.0000000e+00   7.5287876e-01   4.8138596e-02   5.4650237e-01
   1.5460000e+04   8.5825728e+00   1.1194700e+04   8.3821254e+01   1.5977820e+02   9.4354145e+01   4.1506830e+00   2.6022820e+00   1.2218969e+01   1.8107265e+04   1.0000000e+00   7.5401408e-01   4.5879589e-02   5.4887335e-01
   1.5460500e+04   8.5733572e+00   1.1195200e+04   8.3851244e+01   1.5953396e+02   9.3940374e+01   3.7839635e+00   2.6080043e+00   1.0583264e+01   1.8107517e+04   1.0000000e+00   7.5587852e-01   4.2650146e-02   5.5821673e-01
   1.5461000e+04   8.5813564e+00   1.1195700e+04   8.4026640e+01   1.5974153e+02   9.4936717e+01   3.7268341e+00   2.6144365e+00   8.7691160e+00   1.8107769e+04   1.0000000e+00   7.5009340e-01   3.9109709e-02   5.7205859e-01
   1.5461500e+04   8.5860000e+00   1.1196200e+04   8.4281388e+01   1.6030202e+02   9.6924891e+01   3.8249340e+00   2.6195442e+00   7.5077270e+00   1.8108023e+04   1.0000000e+00   7.3564384e-01   3.6372123e-02   5.8580394e-01
   1.5462000e+04   8.5770008e+00   1.1196700e+04   8.4540358e+01   1.6067282e+02   9.9159393e+01   3.8433558e+00   2.6223485e+00   6.7259529e+00   1.8108275e+04   1.0000000e+00   7.2037224e-01   3.4946303e-02   5.9622792e-01
   1.5462500e+04   8.5700716e+00   1.1197200e+04   8.4748446e+01   1.6080616e+02   1.0092528e+02   3.7815543e+00   2.6218812e+00   6.4021645e+00   1.8108528e+04   1.0000000e+00   7.1452864e-01   3.5346833e-02   6.0056908e-01
