~Version                                                                        
 VERS.                2.0 :   CWLS Log ASCII Standard -VERSION 2.0              
 WRAP.                 NO :   One line per depth step                           
~Well Information Block                                                         
#MNEM.UNIT       Data                        Description of Mnemonic            
#----.----      -------------------------- : ------------------------------     
STRT.M           9775.000000               : Start Depth                        
STOP.M           16350.000000              : End Depth                          
STEP.M           0.500000                  : Depth Increment                    
NULL.             -999.250000              : NULL Value                         
COMP.                                      : Company                            
WELL.         6707101_NORWAY               : Well Name                          
UWI .                                      : Unique Well ID                     
~Parameter Information Block                                                    
#----.----      -------------------------- : -----------------------------      
DREF.                  KB                 : Depth Reference                     
EREF.M                                     : Elevation of Depth Reference       
~Tops                                                                           
#TOPS NAME   .        DEPTH:                                                    
~Curve Information Block                                                        
#MNEM.UNIT        API CODE                   Curve Description                  
#----.----      LG--CV-CL--M               : -----------------                  
 depth.F                         : depth index                                  
 CALI.IN                         :   14  CALI                                   
 DBML.F                          :   water depth = 4180 ft.                     
 DT.US/F                         :   13  DT                                     
 DTS.USEC/FT                     :   Shear sonic from D. Neff's IPT project     
 GR.GAPI                         :   12  GR                                     
 RDEEP.OHMM                      :   5   RDEEP                                  
 RHOB.G/C3                       :   10  RHOB                                   
 RO.OHMM                         :   Rt for water saturated formation           
 SALW.PPM                        :   Curve replaced from 7250.89 to 16349.56    
 SW.V/V                          :   IFC(SW_NOCLIP>.85,1,SW)                    
 VSH.V/V                         :   Limited volume of shale                    
 phit.V/V                        : total porosity                               
 xsh.V/V                         : total shale fraction                         
~Asc Depth                                                                      
# ...
   1.2403000e+04   1.1979260e+01   9.6498789e+03   8.6099208e+01   1.4862625e+02   5.9532088e+01   2.9715808e+00   2.3962836e+00   2.6614728e+00   1.8472590e+04   1.0000000e+00   2.4395540e-01   1.6434409e-01   2.4388749e-01
   1.2403500e+04   1.2002840e+01   9.6498789e+03   8.6315794e+01   1.4900397e+02   6.2234633e+01   2.9899562e+00   2.3989254e+00   2.6584486e+00   1.8472436e+04   1.0000000e+00   2.5479680e-01   1.6295072e-01   2.5254624e-01
   1.2404000e+04   1.2008716e+01   9.6498789e+03   8.6750923e+01   1.4988647e+02   6.5406873e+01   3.1727632e+00   2.4019254e+00   2.5818086e+00   1.8472282e+04   1.0000000e+00   2.8906400e-01   1.6146737e-01   2.6634300e-01
   1.2404500e+04   1.2011210e+01   9.6498789e+03   8.7362067e+01   1.5121787e+02   6.7628366e+01   3.4083156e+00   2.4036418e+00   2.4654068e+00   1.8472128e+04   1.0000000e+00   3.3299000e-01   1.6080989e-01   2.8190175e-01
   1.2405000e+04   1.2025840e+01   9.6498789e+03   8.8072423e+01   1.5302204e+02   6.8107030e+01   3.9429764e+00   2.4027164e+00   2.3573062e+00   1.8471974e+04   1.0000000e+00   3.6662660e-01   1.6171212e-01   2.9547513e-01
   1.2405500e+04   1.2033000e+01   9.6498789e+03   8.8802224e+01   1.5544613e+02   6.7294490e+01   3.9889076e+00   2.3987910e+00   2.2867184e+00   1.8471821e+04   1.0000000e+00   3.7672100e-01   1.6433370e-01   3.0471761e-01
   1.2406000e+04   1.2032358e+01   9.6498789e+03   8.9490937e+01   1.5835761e+02   6.6733637e+01   3.4642480e+00   2.3912238e+00   2.2350642e+00   1.8471667e+04   1.0000000e+00   3.6611440e-01   1.6900324e-01   3.0713067e-01
   1.2406500e+04   1.2035852e+01   9.6498789e+03   9.0103335e+01   1.6154691e+02   6.8053269e+01   3.0982966e+00   2.3828656e+00   2.1807986e+00   1.8471512e+04   1.0000000e+00   3.5432200e-01   1.7407954e-01   3.0653543e-01
   1.2407000e+04   1.2041210e+01   9.6498789e+03   9.0619443e+01   1.6456788e+02   7.1820206e+01   3.1702558e+00   2.3780746e+00   2.1090758e+00   1.8471358e+04   1.0000000e+00   3.6522400e-01   1.7707791e-01   3.0974704e-01
   1.2407500e+04   1.2057766e+01   9.6498789e+03   9.1013006e+01   1.6672915e+02   7.7185584e+01   3.3312996e+00   2.3802090e+00   2.0280770e+00   1.8471205e+04   1.0000000e+00   4.1020760e-01   1.7608130e-01   3.2191604e-01
   1.2408000e+04   1.2076914e+01   9.6498789e+03   9.1246484e+01   1.6775317e+02   8.2403407e+01   3.6445560e+00   2.3909852e+00   1.9746966e+00   1.8471051e+04   1.0000000e+00   4.8078340e-01   1.7009883e-01   3.4523266e-01
   1.2408500e+04   1.2083000e+01   9.6498789e+03   9.1289730e+01   1.6738190e+02   8.5562545e+01   4.0806010e+00   2.4081942e+00   1.9766722e+00   1.8470897e+04   1.0000000e+00   5.5475980e-01   1.6036708e-01   3.7532711e-01
   1.2409000e+04   1.2082358e+01   9.6498789e+03   9.1145115e+01   1.6591627e+02   8.5267686e+01   4.4235548e+00   2.4284778e+00   2.0592584e+00   1.8470743e+04   1.0000000e+00   6.0605160e-01   1.4878718e-01   4.0641077e-01
   1.2409500e+04   1.2085852e+01   9.6498789e+03   9.0857757e+01   1.6396113e+02   8.1356924e+01   4.4695216e+00   2.4462688e+00   2.2238924e+00   1.8470590e+04   1.0000000e+00   6.1317380e-01   1.3853547e-01   4.2987358e-01
   1.2410000e+04   1.2103408e+01   9.6498789e+03   9.0507097e+01   1.6208784e+02   7.5365297e+01   4.4874186e+00   2.4577762e+00   2.4669388e+00   1.8470436e+04   1.0000000e+00   5.6907500e-01   1.3180619e-01   4.4110926e-01
   1.2410500e+04   1.2127408e+01   9.6498789e+03   9.0188554e+01   1.6101388e+02   7.0055900e+01   4.4238644e+00   2.4610000e+00   2.7427686e+00   1.8470282e+04   1.0000000e+00   4.8943360e-01   1.2979304e-01   4.3913296e-01
   1.2411000e+04   1.2131506e+01   9.6498789e+03   8.9986894e+01   1.6098844e+02   6.7975444e+01   4.3794180e+00   2.4571492e+00   2.9543648e+00   1.8470128e+04   1.0000000e+00   4.1005620e-01   1.3186284e-01   4.2808357e-01
   1.2411500e+04   1.2117444e+01   9.6498789e+03   8.9950079e+01   1.6206039e+02   6.9951128e+01   4.3675968e+00   2.4505074e+00   2.9979252e+00   1.8469973e+04   1.0000000e+00   3.6921920e-01   1.3561227e-01   4.1621407e-01
   1.2412000e+04   1.2088530e+01   9.6498789e+03   9.0073676e+01   1.6392023e+02   7.4662793e+01   4.2287146e+00   2.4460746e+00   2.8683732e+00   1.8469820e+04   1.0000000e+00   3.8501820e-01   1.3819957e-01   4.1169524e-01
   1.2412500e+04   1.2067012e+01   9.6498789e+03   9.0307541e+01   1.6590050e+02   7.9552026e+01   3.6746500e+00   2.4469254e+00   2.6773236e+00   1.8469667e+04   1.0000000e+00   4.4497340e-01   1.3785156e-01   4.1851940e-01
   1.2413000e+04   1.2070988e+01   9.6498789e+03   9.0580407e+01   1.6756013e+02   8.2237841e+01   3.3116554e+00   2.4512090e+00   2.5217078e+00   1.8469512e+04   1.0000000e+00   5.1581160e-01   1.3557943e-01   4.3203129e-01
   1.2413500e+04   1.2090766e+01   9.6498789e+03   9.0819420e+01   1.6849397e+02   8.1617879e+01   3.3295980e+00   2.4555672e+00   2.4482126e+00   1.8469358e+04   1.0000000e+00   5.6262800e-01   1.3324703e-01   4.4494803e-01
   1.2414000e+04   1.2097716e+01   9.6498789e+03   9.0960810e+01   1.6875229e+02   7.8328856e+01   3.6988852e+00   2.4557164e+00   2.4431164e+00   1.8469205e+04   1.0000000e+00   5.6504160e-01   1.3324571e-01   4.4853900e-01
   1.2414500e+04   1.2099568e+01   9.6498789e+03   9.0961350e+01   1.6884935e+02   7.4453013e+01   4.1506306e+00   2.4511492e+00   2.4912140e+00   1.8469051e+04   1.0000000e+00   5.2570240e-01   1.3583678e-01   4.4089137e-01
   1.2415000e+04   1.2094580e+01   9.6498789e+03   9.0806352e+01   1.6895552e+02   7.2361076e+01   4.3975536e+00   2.4432238e+00   2.5478778e+00   1.8468897e+04   1.0000000e+00   4.6956400e-01   1.4024229e-01   4.2398425e-01
   1.2415500e+04   1.2091642e+01   9.6498789e+03   9.0508958e+01   1.6895254e+02   7.3220985e+01   3.8814398e+00   2.4361492e+00   2.5691816e+00   1.8468743e+04   1.0000000e+00   4.3101660e-01   1.4408530e-01   4.0530535e-01
   1.2416000e+04   1.2088148e+01   9.6498789e+03   9.0104798e+01   1.6868252e+02   7.6365735e+01   3.1824126e+00   2.4340000e+00   2.5366172e+00   1.8468588e+04   1.0000000e+00   4.3252760e-01   1.4507596e-01   3.9255151e-01
   1.2416500e+04   1.2086642e+01   9.6498789e+03   8.9647296e+01   1.6789093e+02   8.0103651e+01   2.9725672e+00   2.4384926e+00   2.4839234e+00   1.8468435e+04   1.0000000e+00   4.7042220e-01   1.4226841e-01   3.8971445e-01
   1.2417000e+04   1.2090852e+01   9.6498789e+03   8.9208204e+01   1.6659525e+02   8.3035858e+01   3.5015596e+00   2.4480598e+00   2.4598714e+00   1.8468282e+04   1.0000000e+00   5.2228280e-01   1.3658897e-01   3.9565978e-01
   1.2417500e+04   1.2091074e+01   9.6498789e+03   8.8871099e+01   1.6521696e+02   8.4613105e+01   4.1996922e+00   2.4584180e+00   2.4721796e+00   1.8468128e+04   1.0000000e+00   5.6624540e-01   1.3051533e-01   4.0511395e-01
   1.2418000e+04   1.2087432e+01   9.6498789e+03   8.8709060e+01   1.6402360e+02   8.4815059e+01   4.5610616e+00   2.4658508e+00   2.4976488e+00   1.8467973e+04   1.0000000e+00   5.9261900e-01   1.2620102e-01   4.1366114e-01
   1.2418500e+04   1.2084074e+01   9.6498789e+03   8.8761795e+01   1.6318883e+02   8.3764730e+01   4.6382836e+00   2.4680000e+00   2.5048530e+00   1.8467819e+04   1.0000000e+00   6.0030620e-01   1.2501071e-01   4.1842518e-01
   1.2419000e+04   1.2083000e+01   9.6498789e+03   8.9033517e+01   1.6287044e+02   8.1600113e+01   4.4175790e+00   2.4635074e+00   2.4709222e+00   1.8467666e+04   1.0000000e+00   5.9094160e-01   1.2771910e-01   4.1729862e-01
   1.2419500e+04   1.2083642e+01   9.6498789e+03   8.9508702e+01   1.6319192e+02   7.8546542e+01   3.9897868e+00   2.4532984e+00   2.4071822e+00   1.8467512e+04   1.0000000e+00   5.6630420e-01   1.3378913e-01   4.1134825e-01
   1.2420000e+04   1.2084642e+01   9.6498789e+03   9.0160420e+01   1.6435772e+02   7.5198895e+01   3.7731486e+00   2.4393730e+00   2.3389786e+00   1.8467358e+04   1.0000000e+00   5.2825080e-01   1.4206544e-01   4.0309464e-01
   1.2420500e+04   1.2079222e+01   9.6498789e+03   9.0940413e+01   1.6662440e+02   7.2758541e+01   3.6019532e+00   2.4243730e+00   2.2861458e+00   1.8467204e+04   1.0000000e+00   4.8211980e-01   1.5101769e-01   3.9569706e-01
