~Version                                                                        
 VERS.                2.0 :   CWLS Log ASCII Standard -VERSION 2.0              
 WRAP.                 NO :   One line per depth step                           
~Well Information Block                                                         
#MNEM.UNIT       Data                        Description of Mnemonic            
#----.----      -------------------------- : ------------------------------     
STRT.M           9775.000000               : Start Depth                        
STOP.M           16350.000000              : End Depth                          
STEP.M           0.500000                  : Depth Increment                    
NULL.             -999.250000              : NULL Value                         
COMP.                                      : Company                            
WELL.         6707101_NORWAY               : Well Name                          
UWI .                                      : Unique Well ID                     
~Parameter Information Block                                                    
#----.----      -------------------------- : -----------------------------      
DREF.                  KB                 : Depth Reference                     
EREF.M                                     : Elevation of Depth Reference       
~Tops                                                                           
#TOPS NAME   .        DEPTH:                                                    
~Curve Information Block                                                        
#MNEM.UNIT        API CODE                   Curve Description                  
#----.----      LG--CV-CL--M               : -----------------                  
 depth.F                         : depth index                                  
 CALI.IN                         :   14  CALI                                   
 DBML.F                          :   water depth = 4180 ft.                     
 DT.US/F                         :   13  DT                                     
 DTS.USEC/FT                     :   Shear sonic from D. Neff's IPT project     
 GR.GAPI                         :   12  GR                                     
 RDEEP.OHMM                      :   5   RDEEP                                  
 RHOB.G/C3                       :   10  RHOB                                   
 RO.OHMM                         :   Rt for water saturated formation           
 SALW.PPM                        :   Curve replaced from 7250.89 to 16349.56    
 SW.V/V                          :   IFC(SW_NOCLIP>.85,1,SW)                    
 VSH.V/V                         :   Limited volume of shale                    
 phit.V/V                        : total porosity                               
 xsh.V/V                         : total shale fraction                         
~Asc Depth                                                                      
# ...
   1.3699000e+04   8.9230728e+00   9.6498789e+03   8.1937802e+01   1.5033530e+02   1.0160930e+02   4.9341066e+00   2.5705677e+00   4.9665897e+00   1.7217127e+04   1.0000000e+00   8.1396080e-01   6.4501310e-02   5.0971234e-01
   1.3699500e+04   8.9142912e+00   9.6498789e+03   8.2486531e+01   1.5068105e+02   1.0105711e+02   4.6146628e+00   2.5715717e+00   5.0053623e+00   1.7217380e+04   1.0000000e+00   8.0827344e-01   6.4288875e-02   5.2492147e-01
   1.3700000e+04   8.9022912e+00   9.6498789e+03   8.2899279e+01   1.5115417e+02   1.0064092e+02   4.4471496e+00   2.5725756e+00   4.9451011e+00   1.7217633e+04   1.0000000e+00   8.0888416e-01   6.3990219e-02   5.3684002e-01
   1.3700500e+04   8.8806552e+00   9.6498789e+03   8.3084799e+01   1.5104421e+02   1.0068985e+02   4.5141490e+00   2.5735795e+00   4.8451752e+00   1.7217885e+04   1.0000000e+00   8.1845120e-01   6.3541743e-02   5.4304641e-01
   1.3701000e+04   8.8665032e+00   9.6498789e+03   8.2970046e+01   1.5019186e+02   1.0139073e+02   4.6520101e+00   2.5740000e+00   4.7440746e+00   1.7218138e+04   1.0000000e+00   8.3299296e-01   6.3225511e-02   5.4075211e-01
   1.3701500e+04   8.8755632e+00   9.6498789e+03   8.2550582e+01   1.4834728e+02   1.0243841e+02   4.8085753e+00   2.5734127e+00   4.6606909e+00   1.7218390e+04   1.0000000e+00   8.3811456e-01   6.3281964e-02   5.2927464e-01
   1.3702000e+04   8.9031992e+00   9.6498789e+03   8.1921863e+01   1.4643576e+02   1.0279159e+02   5.1557830e+00   2.5724088e+00   4.7332296e+00   1.7218644e+04   1.0000000e+00   8.1772864e-01   6.3441665e-02   5.1206526e-01
   1.3702500e+04   8.9349144e+00   9.6498789e+03   8.1262660e+01   1.4551438e+02   1.0128501e+02   5.7305128e+00   2.5714048e+00   4.9401634e+00   1.7218896e+04   1.0000000e+00   7.7226008e-01   6.3587646e-02   4.9433215e-01
   1.3703000e+04   8.9299400e+00   9.6498789e+03   8.0769923e+01   1.4591713e+02   9.7938507e+01   6.0793472e+00   2.5704009e+00   5.0650427e+00   1.7219148e+04   1.0000000e+00   7.2480592e-01   6.3845852e-02   4.8087922e-01
   1.3703500e+04   8.9126488e+00   9.6498789e+03   8.0586572e+01   1.4823892e+02   9.4425281e+01   5.7288211e+00   2.5700000e+00   4.9414182e+00   1.7219401e+04   1.0000000e+00   7.0418200e-01   6.3958649e-02   4.7587798e-01
   1.3704000e+04   8.8932248e+00   9.6498789e+03   8.0750922e+01   1.5168782e+02   9.2875016e+01   4.9348833e+00   2.5693931e+00   4.5096066e+00   1.7219654e+04   1.0000000e+00   7.2179984e-01   6.4409443e-02   4.7898319e-01
   1.3704500e+04   8.8946360e+00   9.6498789e+03   8.1187343e+01   1.5562604e+02   9.4156037e+01   4.1495173e+00   2.5665566e+00   3.9128715e+00   1.7219907e+04   1.0000000e+00   7.6425640e-01   6.6306814e-02   4.8549408e-01
   1.3705000e+04   8.9346896e+00   9.6498789e+03   8.1743520e+01   1.5936386e+02   9.7299113e+01   3.7682185e+00   2.5613116e+00   3.3892350e+00   1.7220160e+04   1.0000000e+00   8.0344160e-01   6.9657270e-02   4.9150368e-01
   1.3705500e+04   9.0548568e+00   9.6498789e+03   8.2260488e+01   1.6216632e+02   1.0021428e+02   3.8300544e+00   2.5528133e+00   3.0592874e+00   1.7220412e+04   1.0000000e+00   8.1084624e-01   7.4838486e-02   4.9180563e-01
   1.3706000e+04   9.2812360e+00   9.6498789e+03   8.2641336e+01   1.6460178e+02   1.0077710e+02   4.2350505e+00   2.5402841e+00   2.9405914e+00   1.7220665e+04   1.0000000e+00   7.7556608e-01   8.2225914e-02   4.8266790e-01
   1.3706500e+04   9.1511600e+00   9.6498789e+03   8.2877729e+01   1.6712738e+02   9.8159661e+01   4.4843446e+00   2.5256024e+00   3.0109531e+00   1.7220918e+04   1.0000000e+00   7.1789240e-01   9.0740118e-02   4.6653140e-01
   1.3707000e+04   8.9418456e+00   9.6498789e+03   8.3018891e+01   1.6928961e+02   9.3861960e+01   4.1606633e+00   2.5111745e+00   3.1641536e+00   1.7221171e+04   1.0000000e+00   6.8144600e-01   9.9043046e-02   4.4822882e-01
   1.3707500e+04   8.8230512e+00   9.6498789e+03   8.3127832e+01   1.7054417e+02   9.1127152e+01   3.6216781e+00   2.4996566e+00   3.2874254e+00   1.7221424e+04   1.0000000e+00   6.9909600e-01   1.0566589e-01   4.3341370e-01
   1.3708000e+04   8.7393168e+00   9.6498789e+03   8.3248137e+01   1.7098595e+02   9.2435792e+01   3.3672030e+00   2.4947233e+00   3.3997814e+00   1.7221676e+04   1.0000000e+00   7.6119456e-01   1.0854901e-01   4.2884061e-01
   1.3708500e+04   8.6893040e+00   9.6498789e+03   8.3379115e+01   1.7047955e+02   9.7087531e+01   3.4299006e+00   2.4972444e+00   3.5896023e+00   1.7221929e+04   1.0000000e+00   8.2146176e-01   1.0719936e-01   4.3590242e-01
   1.3709000e+04   8.6531584e+00   9.6498789e+03   8.3467266e+01   1.6918175e+02   1.0160273e+02   3.8552363e+00   2.5064326e+00   3.9843846e+00   1.7222181e+04   1.0000000e+00   8.4097088e-01   1.0203095e-01   4.5210843e-01
   1.3709500e+04   8.6397152e+00   9.6498789e+03   8.3416059e+01   1.6693149e+02   1.0302467e+02   4.3805161e+00   2.5213445e+00   4.5980301e+00   1.7222435e+04   1.0000000e+00   8.2360552e-01   9.3515145e-02   4.7353418e-01
   1.3710000e+04   8.6473512e+00   9.6498789e+03   8.3131942e+01   1.6374127e+02   1.0172896e+02   4.6656932e+00   2.5378768e+00   5.5121450e+00   1.7222687e+04   1.0000000e+00   8.0245800e-01   8.3919460e-02   4.9139796e-01
   1.3710500e+04   8.6500728e+00   9.6498789e+03   8.2567763e+01   1.5921590e+02   1.0020418e+02   4.8457515e+00   2.5544092e+00   6.4126601e+00   1.7222939e+04   1.0000000e+00   7.9613576e-01   7.4131664e-02   5.0193688e-01
   1.3711000e+04   8.6072440e+00   9.6498789e+03   8.1745190e+01   1.5417310e+02   9.9743247e+01   5.7839303e+00   2.5693262e+00   7.1482785e+00   1.7223192e+04   1.0000000e+00   7.8517920e-01   6.5088744e-02   5.0338352e-01
   1.3711500e+04   8.5505952e+00   9.6498789e+03   8.0768047e+01   1.4890984e+02   9.8855438e+01   7.7735484e+00   2.5804232e+00   7.8575631e+00   1.7223445e+04   1.0000000e+00   7.3246176e-01   5.8125190e-02   4.9544993e-01
   1.3712000e+04   8.5487024e+00   9.6498789e+03   7.9811517e+01   1.4457877e+02   9.4828876e+01   9.3328198e+00   2.5872536e+00   9.4574094e+00   1.7223698e+04   1.0000000e+00   6.2311648e-01   5.3618481e-02   4.8215840e-01
   1.3712500e+04   8.6434392e+00   9.6498789e+03   7.9079507e+01   1.4237683e+02   8.6639989e+01   9.7488173e+00   2.5916362e+00   1.3249761e+01   1.7223951e+04   1.0000000e+00   4.8470832e-01   5.0659037e-02   4.7104878e-01
   1.3713000e+04   8.7520280e+00   9.6498789e+03   7.8728872e+01   1.4203660e+02   7.6336169e+01   9.5801965e+00   2.5948270e+00   2.2528532e+01   1.7224203e+04   1.0000000e+00   3.7202232e-01   4.8619572e-02   4.6735265e-01
   1.3713500e+04   8.8251864e+00   9.6498789e+03   7.8830908e+01   1.4433265e+02   6.7929045e+01   8.5587362e+00   2.6018293e+00   3.8086497e+01   1.7224456e+04   1.0000000e+00   3.3542312e-01   4.4677016e-02   4.7955998e-01
   1.3714000e+04   8.8013896e+00   9.6498789e+03   7.9376019e+01   1.4764424e+02   6.5196588e+01   7.7924105e+00   2.6121067e+00   3.6364081e+01   1.7224709e+04   1.0000000e+00   3.9242992e-01   3.9135065e-02   5.0680020e-01
   1.3714500e+04   8.7393832e+00   9.6498789e+03   8.0282583e+01   1.5134709e+02   6.9518193e+01   7.4706491e+00   2.6243389e+00   1.9353202e+01   1.7224962e+04   1.0000000e+00   5.1348696e-01   3.2708807e-02   5.4569634e-01
   1.3715000e+04   8.6656808e+00   9.6498789e+03   8.1404178e+01   1.5439519e+02   7.8421088e+01   7.4506441e+00   2.6316975e+00   8.1160437e+00   1.7225215e+04   1.0000000e+00   6.3262888e-01   2.9224911e-02   5.8365715e-01
   1.3715500e+04   8.5666208e+00   9.6498789e+03   8.2579760e+01   1.5584700e+02   8.7083262e+01   7.0387026e+00   2.6258214e+00   4.5026136e+00   1.7225467e+04   1.0000000e+00   6.8486192e-01   3.3370378e-02   6.0533036e-01
   1.3716000e+04   8.4772504e+00   9.6498789e+03   8.3655330e+01   1.5555532e+02   9.0906796e+01   6.7050720e+00   2.6030165e+00   3.2820545e+00   1.7225720e+04   1.0000000e+00   6.4720352e-01   4.7136486e-02   6.0089581e-01
   1.3716500e+04   8.4168800e+00   9.6498789e+03   8.4512269e+01   1.5313531e+02   8.8262218e+01   6.8531046e+00   2.5649198e+00   2.7368858e+00   1.7225972e+04   1.0000000e+00   5.4616832e-01   6.9449147e-02   5.6739737e-01
