~Version                                                                        
 VERS.                2.0 :   CWLS Log ASCII Standard -VERSION 2.0              
 WRAP.                 NO :   One line per depth step                           
~Well Information Block                                                         
#MNEM.UNIT       Data                        Description of Mnemonic            
#----.----      -------------------------- : ------------------------------     
STRT.M           9775.000000               : Start Depth                        
STOP.M           16350.000000              : End Depth                          
STEP.M           0.500000                  : Depth Increment                    
NULL.             -999.250000              : NULL Value                         
COMP.                                      : Company                            
WELL.         6707101_NORWAY               : Well Name                          
UWI .                                      : Unique Well ID                     
~Parameter Information Block                                                    
#----.----      -------------------------- : -----------------------------      
DREF.                  KB                 : Depth Reference                     
EREF.M                                     : Elevation of Depth Reference       
~Tops                                                                           
#TOPS NAME   .        DEPTH:                                                    
~Curve Information Block                                                        
#MNEM.UNIT        API CODE                   Curve Description                  
#----.----      LG--CV-CL--M               : -----------------                  
 depth.F                         : depth index                                  
 CALI.IN                         :   14  CALI                                   
 DBML.F                          :   water depth = 4180 ft.                     
 DT.US/F                         :   13  DT                                     
 DTS.USEC/FT                     :   Shear sonic from D. Neff's IPT project     
 GR.GAPI                         :   12  GR                                     
 RDEEP.OHMM                      :   5   RDEEP                                  
 RHOB.G/C3                       :   10  RHOB                                   
 RO.OHMM                         :   Rt for water saturated formation           
 SALW.PPM                        :   Curve replaced from 7250.89 to 16349.56    
 SW.V/V                          :   IFC(SW_NOCLIP>.85,1,SW)                    
 VSH.V/V                         :   Limited volume of shale                    
 phit.V/V                        : total porosity                               
 xsh.V/V                         : total shale fraction                         
~Asc Depth                                                                      
# ...
   1.4581000e+04   8.7168520e+00   1.0315700e+04   8.5788808e+01   1.6428652e+02   1.0440471e+02   3.6539242e+00   2.5871215e+00   5.0081153e+00   1.7662954e+04   1.0000000e+00   8.6398664e-01   5.7534918e-02   6.3374990e-01
   1.4581500e+04   8.7355668e+00   1.0316200e+04   8.5113762e+01   1.5897042e+02   1.0188299e+02   3.7083022e+00   2.5890970e+00   5.2107604e+00   1.7663207e+04   1.0000000e+00   8.3641766e-01   5.5933699e-02   6.1869852e-01
   1.4582000e+04   8.7381444e+00   1.0316700e+04   8.4103968e+01   1.5339722e+02   9.7005798e+01   4.0842524e+00   2.5900000e+00   5.4458644e+00   1.7663459e+04   1.0000000e+00   7.7437612e-01   5.4712268e-02   5.9335638e-01
   1.4582500e+04   8.7404982e+00   1.0317200e+04   8.2916408e+01   1.4917906e+02   9.1151702e+01   4.8098093e+00   2.5898302e+00   5.9337333e+00   1.7663712e+04   1.0000000e+00   6.9350752e-01   5.3991003e-02   5.6225980e-01
   1.4583000e+04   8.7455704e+00   1.0317700e+04   8.1785661e+01   1.4666172e+02   8.6421578e+01   5.6437000e+00   2.5885876e+00   6.4654260e+00   1.7663965e+04   1.0000000e+00   6.2130248e-01   5.3936080e-02   5.3167371e-01
   1.4583500e+04   8.7482852e+00   1.0318200e+04   8.0963240e+01   1.4625070e+02   8.4780000e+01   6.1474418e+00   2.5862724e+00   6.6115819e+00   1.7664218e+04   1.0000000e+00   5.8726858e-01   5.4710349e-02   5.0774859e-01
   1.4584000e+04   8.7567112e+00   1.0318700e+04   8.0648212e+01   1.4785996e+02   8.7034090e+01   6.3279257e+00   2.5834421e+00   6.2594422e+00   1.7664470e+04   1.0000000e+00   6.0803216e-01   5.6114789e-02   4.9576938e-01
   1.4584500e+04   8.7635704e+00   1.0319200e+04   8.0928049e+01   1.5113425e+02   9.2214542e+01   6.3774996e+00   2.5820000e+00   5.6498331e+00   1.7664722e+04   1.0000000e+00   6.7585024e-01   5.7115721e-02   5.0043041e-01
   1.4585000e+04   8.7624296e+00   1.0319700e+04   8.1740472e+01   1.5597932e+02   9.7981590e+01   5.9323507e+00   2.5827034e+00   5.1160054e+00   1.7664976e+04   1.0000000e+00   7.5992100e-01   5.7248500e-02   5.2158498e-01
   1.4585500e+04   8.7462202e+00   1.0320200e+04   8.2875389e+01   1.6181828e+02   1.0194988e+02   4.9503584e+00   2.5847760e+00   4.8920230e+00   1.7665228e+04   1.0000000e+00   8.2339390e-01   5.6831084e-02   5.5340786e-01
   1.4586000e+04   8.7219350e+00   1.0320700e+04   8.4025225e+01   1.6743414e+02   1.0308080e+02   4.0648055e+00   2.5851513e+00   4.7404764e+00   1.7665482e+04   1.0000000e+00   8.4649098e-01   5.7405760e-02   5.8369964e-01
   1.4586500e+04   8.7297076e+00   1.0321200e+04   8.4877759e+01   1.7093211e+02   1.0202648e+02   3.6031973e+00   2.5793927e+00   4.4573153e+00   1.7665734e+04   1.0000000e+00   8.3502706e-01   6.1267514e-02   5.9719876e-01
   1.4587000e+04   8.7794838e+00   1.0321700e+04   8.5223437e+01   1.7238000e+02   1.0023493e+02   3.4358733e+00   2.5625667e+00   3.9513043e+00   1.7665986e+04   1.0000000e+00   8.0978554e-01   7.1047419e-02   5.7992143e-01
   1.4587500e+04   8.8636896e+00   1.0322200e+04   8.5041512e+01   1.7200925e+02   9.8772465e+01   3.4263431e+00   2.5312616e+00   3.2562352e+00   1.7666239e+04   1.0000000e+00   7.8782634e-01   8.8643182e-02   5.2514560e-01
   1.4588000e+04   9.0072420e+00   1.0322700e+04   8.4521198e+01   1.7083711e+02   9.7882221e+01   3.6582612e+00   2.4866468e+00   2.5636273e+00   1.7666492e+04   1.0000000e+00   7.7450974e-01   1.1352468e-01   4.3971931e-01
   1.4588500e+04   9.4818344e+00   1.0323200e+04   8.3979428e+01   1.7019915e+02   9.7316731e+01   4.5262269e+00   2.4369016e+00   2.0407574e+00   1.7666745e+04   1.0000000e+00   7.6665884e-01   1.4130265e-01   3.4579985e-01
   1.4589000e+04   1.0444564e+01   1.0323700e+04   8.3722391e+01   1.7000104e+02   9.6870548e+01   5.9301085e+00   2.3956519e+00   1.7285612e+00   1.7666998e+04   8.0638462e-01   7.6012310e-01   1.6447312e-01   2.7306980e-01
   1.4589500e+04   1.0783884e+01   1.0324200e+04   8.3918177e+01   1.7025594e+02   9.6684746e+01   6.8166819e+00   2.3744084e+00   1.5960119e+00   1.7667250e+04   6.6657000e-01   7.5529386e-01   1.7660491e-01   2.4312290e-01
   1.4590000e+04   9.7294068e+00   1.0324700e+04   8.4533545e+01   1.7105459e+02   9.7090139e+01   6.7765421e+00   2.3788299e+00   1.6171524e+00   1.7667503e+04   6.7466104e-01   7.5634188e-01   1.7446877e-01   2.6403266e-01
   1.4590500e+04   8.9519420e+00   1.0325200e+04   8.5409270e+01   1.7268597e+02   9.8244550e+01   6.2266734e+00   2.4067169e+00   1.7831727e+00   1.7667756e+04   8.8888434e-01   7.6753178e-01   1.5924307e-01   3.2975935e-01
   1.4591000e+04   8.8404260e+00   1.0325700e+04   8.6357984e+01   1.7460710e+02   9.9818351e+01   5.3500300e+00   2.4492149e+00   2.0997829e+00   1.7668009e+04   1.0000000e+00   7.8790832e-01   1.3585597e-01   4.2297425e-01
   1.4591500e+04   8.8517112e+00   1.0326200e+04   8.7244192e+01   1.7644724e+02   1.0114572e+02   4.2780907e+00   2.4928371e+00   2.5498231e+00   1.7668262e+04   1.0000000e+00   8.0918052e-01   1.1184150e-01   5.1832557e-01
   1.4592000e+04   8.8617834e+00   1.0326700e+04   8.8006394e+01   1.7821463e+02   1.0182629e+02   3.5982308e+00   2.5273289e+00   3.0681275e+00   1.7668513e+04   1.0000000e+00   8.2256896e-01   9.2917417e-02   5.9613397e-01
   1.4592500e+04   8.8688556e+00   1.0327200e+04   8.8620055e+01   1.7989662e+02   1.0205767e+02   3.2773581e+00   2.5481049e+00   3.5137978e+00   1.7668767e+04   1.0000000e+00   8.2683538e-01   8.1632540e-02   6.4729869e-01
   1.4593000e+04   8.8742130e+00   1.0327700e+04   8.9047667e+01   1.8074313e+02   1.0224884e+02   3.1293413e+00   2.5567352e+00   3.7576236e+00   1.7669019e+04   1.0000000e+00   8.2826390e-01   7.7070365e-02   6.7328950e-01
   1.4593500e+04   8.8779278e+00   1.0328200e+04   8.9227738e+01   1.7977868e+02   1.0234787e+02   3.0734446e+00   2.5588075e+00   3.8216542e+00   1.7669273e+04   1.0000000e+00   8.3149892e-01   7.6031107e-02   6.8165212e-01
   1.4594000e+04   8.8815704e+00   1.0328700e+04   8.9115735e+01   1.7739356e+02   1.0166423e+02   3.1431342e+00   2.5590000e+00   3.8326758e+00   1.7669525e+04   1.0000000e+00   8.3132924e-01   7.5839923e-02   6.7886171e-01
   1.4594500e+04   8.8752888e+00   1.0329200e+04   8.8723333e+01   1.7328553e+02   9.9594365e+01   3.2785447e+00   2.5598444e+00   3.9192026e+00   1.7669777e+04   1.0000000e+00   8.1555594e-01   7.5076409e-02   6.6944748e-01
   1.4595000e+04   8.8620036e+00   1.0329700e+04   8.8121149e+01   1.6878980e+02   9.6777167e+01   3.4066157e+00   2.5625882e+00   4.1574659e+00   1.7670030e+04   1.0000000e+00   7.7953968e-01   7.3088040e-02   6.5742607e-01
   1.4595500e+04   8.8499314e+00   1.0330200e+04   8.7432475e+01   1.6476972e+02   9.5134549e+01   3.5612095e+00   2.5682864e+00   4.5312718e+00   1.7670283e+04   1.0000000e+00   7.4083788e-01   6.9366680e-02   6.4784272e-01
   1.4596000e+04   8.8460000e+00   1.0330700e+04   8.6806150e+01   1.6223718e+02   9.6269814e+01   4.0749136e+00   2.5752957e+00   4.8574432e+00   1.7670536e+04   1.0000000e+00   7.2982780e-01   6.4946626e-02   6.4199758e-01
   1.4596500e+04   8.8370036e+00   1.0331200e+04   8.6369945e+01   1.6261247e+02   9.9865222e+01   4.6186182e+00   2.5824240e+00   4.9702444e+00   1.7670789e+04   1.0000000e+00   7.6135924e-01   6.0593390e-02   6.4140123e-01
   1.4597000e+04   8.8210758e+00   1.0331700e+04   8.6157795e+01   1.6455154e+02   1.0382631e+02   4.4361570e+00   2.5867442e+00   4.9602642e+00   1.7671041e+04   1.0000000e+00   8.1923362e-01   5.7990919e-02   6.4239251e-01
   1.4597500e+04   8.8227112e+00   1.0332200e+04   8.6057606e+01   1.6753637e+02   1.0600966e+02   3.6792431e+00   2.5898631e+00   5.0570073e+00   1.7671294e+04   1.0000000e+00   8.6918198e-01   5.6149190e-02   6.4450891e-01
   1.4598000e+04   8.8404946e+00   1.0332700e+04   8.5831817e+01   1.6993960e+02   1.0565096e+02   3.1847787e+00   2.5890273e+00   5.0499837e+00   1.7671547e+04   1.0000000e+00   8.8674188e-01   5.6461236e-02   6.3710081e-01
   1.4598500e+04   8.8614946e+00   1.0333200e+04   8.5211552e+01   1.7010518e+02   1.0319331e+02   3.0788415e+00   2.5860269e+00   4.8870219e+00   1.7671800e+04   1.0000000e+00   8.7036424e-01   5.7722437e-02   6.1581947e-01
