~Version                                                                        
 VERS.                2.0 :   CWLS Log ASCII Standard -VERSION 2.0              
 WRAP.                 NO :   One line per depth step                           
~Well Information Block                                                         
#MNEM.UNIT       Data                        Description of Mnemonic            
#----.----      -------------------------- : ------------------------------     
STRT.M           9775.000000               : Start Depth                        
STOP.M           16350.000000              : End Depth                          
STEP.M           0.500000                  : Depth Increment                    
NULL.             -999.250000              : NULL Value                         
COMP.                                      : Company                            
WELL.         6707101_NORWAY               : Well Name                          
UWI .                                      : Unique Well ID                     
~Parameter Information Block                                                    
#----.----      -------------------------- : -----------------------------      
DREF.                  KB                 : Depth Reference                     
EREF.M                                     : Elevation of Depth Reference       
~Tops                                                                           
#TOPS NAME   .        DEPTH:                                                    
~Curve Information Block                                                        
#MNEM.UNIT        API CODE                   Curve Description                  
#----.----      LG--CV-CL--M               : -----------------                  
 depth.F                         : depth index                                  
 CALI.IN                         :   14  CALI                                   
 DBML.F                          :   water depth = 4180 ft.                     
 DT.US/F                         :   13  DT                                     
 DTS.USEC/FT                     :   Shear sonic from D. Neff's IPT project     
 GR.GAPI                         :   12  GR                                     
 RDEEP.OHMM                      :   5   RDEEP                                  
 RHOB.G/C3                       :   10  RHOB                                   
 RO.OHMM                         :   Rt for water saturated formation           
 SALW.PPM                        :   Curve replaced from 7250.89 to 16349.56    
 SW.V/V                          :   IFC(SW_NOCLIP>.85,1,SW)                    
 VSH.V/V                         :   Limited volume of shale                    
 phit.V/V                        : total porosity                               
 xsh.V/V                         : total shale fraction                         
~Asc Depth                                                                      
   9.7750000e+03   1.2176641e+01   9.6498789e+03   1.0505271e+02   1.6338458e+02   4.3019652e+01   1.1713628e+02   2.0881760e+00   1.7658775e+00   1.7550938e+04   1.2832154e-01   5.0319820e-02   1.7674952e-01   2.0175904e-01
   9.7755000e+03   1.2175717e+01   9.6498789e+03   1.0709649e+02   1.6605397e+02   4.2560131e+01   1.3233084e+02   2.0688172e+00   1.7076746e+00   1.7550598e+04   1.1213878e-01   4.2646060e-02   2.4313024e-01   1.2013532e-01
   9.7760000e+03   1.2184621e+01   9.6498789e+03   1.0912212e+02   1.6958335e+02   4.2844016e+01   9.0698863e+01   2.0536644e+00   1.6541148e+00   1.7550259e+04   1.3632276e-01   4.7411960e-02   2.6043675e-01   1.0182090e-01
   9.7765000e+03   1.2202187e+01   9.6498789e+03   1.1107267e+02   1.7350618e+02   4.4390918e+01   4.4199770e+01   2.0457940e+00   1.6160676e+00   1.7549919e+04   2.0249830e-01   7.3179320e-02   2.6984802e-01   9.4227483e-02
   9.7770000e+03   1.2219904e+01   9.6498789e+03   1.1299731e+02   1.7749236e+02   4.6802509e+01   1.9403581e+01   2.0472060e+00   1.5984143e+00   1.7549579e+04   2.9360472e-01   1.1339332e-01   2.7807987e-01   8.7432206e-02
   9.7775000e+03   1.2240752e+01   9.6498789e+03   1.1493834e+02   1.8223050e+02   4.9139251e+01   1.3771352e+01   2.0560532e+00   1.5945152e+00   1.7549239e+04   3.3305190e-01   1.5231868e-01   2.7816810e-01   9.2364226e-02
   9.7780000e+03   1.2257980e+01   9.6498789e+03   1.1682486e+02   1.8866985e+02   5.0706111e+01   1.4840520e+01   2.0676944e+00   1.6007781e+00   1.7548899e+04   3.2147608e-01   1.7844870e-01   2.7229706e-01   1.3307085e-01
   9.7785000e+03   1.2255303e+01   9.6498789e+03   1.1845849e+02   1.9524681e+02   5.1440311e+01   1.5624778e+01   2.0784120e+00   1.6060676e+00   1.7548559e+04   3.1304344e-01   1.9067464e-01   2.6716628e-01   1.7133869e-01
   9.7790000e+03   1.2242020e+01   9.6498789e+03   1.1959539e+02   2.0044527e+02   5.1494072e+01   1.5961318e+01   2.0839236e+00   1.6007143e+00   1.7548220e+04   3.0924402e-01   1.9153994e-01   2.6467962e-01   1.9677557e-01
   9.7795000e+03   1.2235076e+01   9.6498789e+03   1.2008125e+02   2.0258374e+02   5.0828631e+01   2.2719994e+01   2.0811528e+00   1.5805877e+00   1.7547880e+04   2.6307168e-01   1.8049416e-01   2.6180373e-01   2.1677822e-01
   9.7800000e+03   1.2231434e+01   9.6498789e+03   1.1995733e+02   1.9891968e+02   4.9402242e+01   5.0486113e+01   2.0725880e+00   1.5419880e+00   1.7547540e+04   1.8246992e-01   1.5668424e-01   2.5832715e-01   2.3133053e-01
   9.7805000e+03   1.2235773e+01   9.6498789e+03   1.1945336e+02   1.9393999e+02   4.7710654e+01   8.2744389e+01   2.0625880e+00   1.5015475e+00   1.7547200e+04   1.3368978e-01   1.2847666e-01   2.5818724e-01   2.2734292e-01
   9.7810000e+03   1.2242207e+01   9.6498789e+03   1.1887023e+02   1.9167566e+02   4.6773500e+01   6.1244655e+01   2.0557940e+00   1.4766831e+00   1.7546860e+04   1.6039566e-01   1.1288396e-01   2.6314248e-01   2.0188304e-01
   9.7815000e+03   1.2247207e+01   9.6498789e+03   1.1842391e+02   1.9022549e+02   4.7217017e+01   2.5795539e+01   2.0565648e+00   1.4738918e+00   1.7546520e+04   2.5597208e-01   1.2025482e-01   2.7131459e-01   1.6575112e-01
   9.7820000e+03   1.2263111e+01   9.6498789e+03   1.1815307e+02   1.8797046e+02   4.8501305e+01   1.3254335e+01   2.0637708e+00   1.4948854e+00   1.7546180e+04   3.3186592e-01   1.4168602e-01   2.7533120e-01   1.4567678e-01
   9.7825000e+03   1.2245985e+01   9.6498789e+03   1.1794363e+02   1.8601603e+02   4.9317952e+01   1.3066826e+01   2.0753356e+00   1.5324388e+00   1.7545841e+04   3.3585538e-01   1.5533878e-01   2.7056559e-01   1.5383232e-01
   9.7830000e+03   1.2216606e+01   9.6498789e+03   1.1763945e+02   1.8557198e+02   4.8921309e+01   2.1137222e+01   2.0883356e+00   1.5739257e+00   1.7545501e+04   2.7503348e-01   1.4867142e-01   2.5919790e-01   1.8188322e-01
   9.7835000e+03   1.2202227e+01   9.6498789e+03   1.1715706e+02   1.8575113e+02   4.7815118e+01   2.9774978e+01   2.0994120e+00   1.6119187e+00   1.7545161e+04   2.2908774e-01   1.3025130e-01   2.5033760e-01   1.9992560e-01
   9.7840000e+03   1.2214394e+01   9.6498789e+03   1.1652234e+02   1.8588222e+02   4.6990486e+01   2.8681037e+01   2.1074884e+00   1.6380487e+00   1.7544821e+04   2.3512946e-01   1.1655014e-01   2.4726437e-01   1.9674456e-01
   9.7845000e+03   1.2228773e+01   9.6498789e+03   1.1582916e+02   1.8638183e+02   4.6759046e+01   2.3602582e+01   2.1112824e+00   1.6488636e+00   1.7544481e+04   2.6011984e-01   1.1267930e-01   2.4759546e-01   1.8294078e-01
   9.7850000e+03   1.2232000e+01   9.6498789e+03   1.1516186e+02   1.8779432e+02   4.6669491e+01   2.2056735e+01   2.1113588e+00   1.6404093e+00   1.7544141e+04   2.6750408e-01   1.1115306e-01   2.4804324e-01   1.7097954e-01
   9.7855000e+03   1.2226869e+01   9.6498789e+03   1.1452312e+02   1.8929433e+02   4.6339025e+01   2.5331764e+01   2.1077940e+00   1.6164484e+00   1.7543802e+04   2.4879736e-01   1.0565364e-01   2.4784219e-01   1.6309617e-01
   9.7860000e+03   1.2216945e+01   9.6498789e+03   1.1382279e+02   1.9008677e+02   4.5933420e+01   3.4284257e+01   2.1040764e+00   1.5964866e+00   1.7543462e+04   2.1401368e-01   9.8895040e-02   2.4634849e-01   1.5858019e-01
   9.7865000e+03   1.2209152e+01   9.6498789e+03   1.1294117e+02   1.8936798e+02   4.5983230e+01   3.7100803e+01   2.1062060e+00   1.5957464e+00   1.7543122e+04   2.0362770e-01   9.9742860e-02   2.4440389e-01   1.5100935e-01
   9.7870000e+03   1.2196738e+01   9.6498789e+03   1.1182464e+02   1.8581028e+02   4.7295380e+01   2.3695203e+01   2.1195416e+00   1.6291872e+00   1.7542782e+04   2.7179248e-01   1.2163996e-01   2.4418391e-01   1.3208655e-01
   9.7875000e+03   1.2184586e+01   9.6498789e+03   1.1053828e+02   1.8297279e+02   5.1069920e+01   1.2291837e+01   2.1484420e+00   1.6987382e+00   1.7542443e+04   3.7191376e-01   1.8453270e-01   2.3992983e-01   1.3089466e-01
   9.7880000e+03   1.2188055e+01   9.6498789e+03   1.0924183e+02   1.8466475e+02   5.8326014e+01   8.4338580e+00   2.1924188e+00   1.7981692e+00   1.7542104e+04   4.5017380e-01   3.0544090e-01   2.2637803e-01   1.4455124e-01
   9.7885000e+03   1.2306811e+01   9.6498789e+03   1.0812549e+02   1.9123122e+02   6.8658995e+01   6.7753104e+00   2.2446248e+00   1.9169336e+00   1.7541764e+04   5.1082394e-01   4.7767562e-01   2.0662830e-01   1.6790968e-01
   9.7890000e+03   1.2488376e+01   9.6498789e+03   1.0733766e+02   2.0470742e+02   7.9819061e+01   5.6276104e+00   2.2967012e+00   2.0328520e+00   1.7541425e+04   5.6933502e-01   6.6366658e-01   1.8589914e-01   1.9661098e-01
   9.7895000e+03   1.2565545e+01   9.6498789e+03   1.0692859e+02   2.1793145e+02   8.8826214e+01   5.2306876e+00   2.3406480e+00   2.1452141e+00   1.7541085e+04   5.9771954e-01   8.1379512e-01   1.6645464e-01   2.3697462e-01
   9.7900000e+03   1.2570076e+01   9.6498789e+03   1.0685024e+02   2.2365305e+02   9.3435078e+01   5.3973300e+00   2.3703888e+00   2.2609362e+00   1.7540745e+04   5.9983994e-01   8.9058924e-01   1.5207570e-01   2.7096387e-01
   9.7905000e+03   1.2541420e+01   9.6498789e+03   1.0700078e+02   2.2303717e+02   9.2836000e+01   5.4248268e+00   2.3815648e+00   2.3799680e+00   1.7540405e+04   6.1316736e-01   8.8061776e-01   1.4744371e-01   2.8484272e-01
   9.7910000e+03   1.2516379e+01   9.6498789e+03   1.0729060e+02   2.1505139e+02   8.7705798e+01   5.4984924e+00   2.3740232e+00   2.4031166e+00   1.7540065e+04   6.1561982e-01   7.9508186e-01   1.5135701e-01   2.7956682e-01
   9.7915000e+03   1.2349367e+01   9.6498789e+03   1.0765458e+02   2.0523390e+02   7.9971438e+01   6.6706348e+00   2.3510464e+00   2.3342099e+00   1.7539725e+04   5.6003348e-01   6.6618884e-01   1.5920525e-01   2.6579307e-01
   9.7920000e+03   1.2231420e+01   9.6498789e+03   1.0798308e+02   1.9848844e+02   7.2038172e+01   7.8930868e+00   2.3198404e+00   2.2461623e+00   1.7539386e+04   5.0773788e-01   5.3397252e-01   1.7080264e-01   2.4290207e-01
   9.7925000e+03   1.2242297e+01   9.6498789e+03   1.0809000e+02   1.9375849e+02   6.5583764e+01   8.6615276e+00   2.2906876e+00   2.1901778e+00   1.7539046e+04   4.8213614e-01   4.2636146e-01   1.8277577e-01   2.1617181e-01
